"Id","business_id","name","address","city","state","postal_code","latitude","longitude","phone_number",""
"0","10","TIRAMISU KITCHEN","033 BELDEN PL","San Francisco","CA","94104","37.791116","-122.403816","",""
"1","12","KIKKA","250 EMBARCADERO  7/F","San Francisco","CA","94105","37.788613","-122.393894","",""
"2","17","GEORGE'S COFFEE SHOP","2200 OAKDALE AVE ","San Francisco","CA","94124","37.741086","-122.401737","+14155531470",""
"3","19","NRGIZE LIFESTYLE CAFE","1200 VAN NESS AVE, 3RD FLOOR","San Francisco","CA","94109","37.786848","-122.421547","",""
"4","24","OMNI S.F. HOTEL - 2ND FLOOR PANTRY","500 CALIFORNIA ST, 2ND  FLOOR","San Francisco","CA","94104","37.792888","-122.403135","",""
"5","25","LITTLE SPOT CAFE, THE","1199 SO VAN NESS AVE ","San Francisco","CA","94110","37.754084","-122.416416","",""
"6","29","CHICO'S PIZZA","131 06TH ST ","San Francisco","CA","94103","37.774722","-122.406761","+14155251111",""
"7","31","NORMAN'S ICE CREAM AND FREEZES","2801 LEAVENWORTH ST ","San Francisco","CA","94133","37.807155","-122.419004","",""
"8","37","CAFE BISTRO","4141 GEARY BLVD ","San Francisco","CA","94118","37.780963","-122.463739","",""
"9","40","MO'S COFFEE BAR","750 FOLSOM ST ","San Francisco","CA","94107","37.782674","-122.400456","",""
"10","45","CHARLIE'S DELI CAFÉ","3202 FOLSOM ST ","San Francisco","CA","94110","37.747114","-122.413641","",""
"11","48","ART'S CAFE","747 IRVING ST ","San Francisco","CA","94122","37.764013","-122.465749","",""
"12","50","SUSHI ZONE","1815  MARKET ST. ","San Francisco","CA","94103","37.771437","-122.423892","+14155621114",""
"13","54","RHODA GOLDMAN PLAZA","2180 POST ST ","San Francisco","CA","94115","37.784626","-122.437734","+14155345060",""
"14","56","CAFE X + O","1799 CHURCH ST ","San Francisco","CA","94131","37.742325","-122.426476","+14155823535",""
"15","58","OASIS GRILL","91 DRUMM ST ","San Francisco","CA","94111","37.794483","-122.396584","",""
"16","61","CHOWDERS","PIER 39  SPACE A3","San Francisco","CA","94133","37.80824","-122.410189","",""
"17","63","DELI-PUB CAFE, THE","301 CORTLAND AVE ","San Francisco","CA","94110","37.739268","-122.418367","+14155281631",""
"18","66","STARBUCKS COFFEE","1800 IRVING ST ","San Francisco","CA","94122","37.763578","-122.477461","",""
"19","67","REVOLUTION CAFÉ","3248 22ND ST ","San Francisco","CA","94110","37.755419","-122.419542","",""
"20","70","KING-KONG","745 O'FARRELL ST ","San Francisco","CA","94109","37.785238","-122.416995","+14155344645",""
"21","71","KAPPA RESTAURANT","1700 POST ST K","San Francisco","CA","94115","37.785567","-122.430074","+14155676004",""
"22","73","DINO'S PIZZA DELI","2101 FILLMORE ST ","San Francisco","CA","94115","37.788932","-122.433895","",""
"23","76","OMNI S.F. HOTEL - 3RD FLOOR PANTRY","500 CALIFORNIA ST, 3RD FLOOR","San Francisco","CA","94104","37.792888","-122.403135","",""
"24","77","OMNI S.F. HOTEL - EMPLOYEE CAFETERIA","500 CALIFORNIA ST, BASEMENT","San Francisco","CA","94104","37.792888","-122.403135","",""
"25","80","LAW SCHOOL CAFE","2199  ST ","San Francisco","CA","94117","37.774941","-122.452797","",""
"26","81","CLUB ED/BON APPETIT","2350 TURK ST ","San Francisco","CA","94117","37.778468","-122.448484","",""
"27","83","CHEZ MAMAN","1453 18TH ST ","San Francisco","CA","94107","37.762513","-122.397169","+14155378680",""
"28","85","EL MAJAHUAL RESTAURANT","1142 VALENCIA ST","San Francisco","CA","94110","37.754687","-122.420945","+14155827514",""
"29","88","J.B.'S PLACE","1435 17TH ST ","San Francisco","CA","94107","37.765003","-122.398084","",""
"30","95","VEGA","419 CORTLAND AVE ","San Francisco","CA","94110","37.739207","-122.417447","",""
"31","98","XOX TRUFFLES","754 COLUMBUS AVE ","San Francisco","CA","94133","37.801665","-122.412104","",""
"32","99","A-1 CAFE RESTAURANT","779 CLAY ST ","San Francisco","CA","94108","37.794293","-122.405967","",""
"33","101","CABLE CAR CORNER","1099 POWELL ST ","San Francisco","CA","94108","37.794615","-122.409705","",""
"34","102","AKIKO'S SUSHI BAR","542A MASON ST ","San Francisco","CA","94102","37.788484","-122.410045","",""
"35","104","INO SUSHI","22 PEACE PLAZA  #510","San Francisco","CA","94115","37.785018","-122.429587","+14155923121",""
"36","108","RUE LEPIC","900 PINE ST","San Francisco","CA","94108","37.790868","-122.410854","",""
"37","111","PETITE DELI","752 COLUMBUS AVE ","San Francisco","CA","94133","37.801665","-122.412104","",""
"38","113","RICOS RESTAURANT","943 COLUMBUS AVE ","San Francisco","CA","94133","37.803216","-122.414427","",""
"39","114","GOOD MONG KOK","1039 STOCKTON ST ","San Francisco","CA","94108","37.795594","-122.408204","",""
"40","116","THE WATERFRONT RESTAURANT","PIER 7 EMBARCADERO","San Francisco","CA","94111","37.793874","-122.396464","",""
"41","121","AKIKOS SUSHI","431 BUSH ST ","San Francisco","CA","94108","37.790643","-122.404676","",""
"42","125","CENTERFOLDS","391 BROADWAY ST ","San Francisco","CA","94133","37.798233","-122.403637","",""
"43","126","BROADWAY DIM SUM","684 BROADWAY ST ","San Francisco","CA","94133","37.797708","-122.408413","",""
"44","130","CAFFE MACARONI","59 COLUMBUS AVE ","San Francisco","CA","94111","37.796208","-122.404308","",""
"45","132","SILVER STAR CAFE AND DELI","316 PACIFIC AVE ","San Francisco","CA","94111","37.797668","-122.401125","",""
"46","133","NOE VALLEY DELI & CAFE","4007 24TH ST ","San Francisco","CA","94114","37.751366","-122.432055","",""
"47","134","MINT","400 MCALLISTER ST","San Francisco","CA","94102","37.780247","-122.418974","",""
"48","140","CAFE MADELEINE","300 CALIFORNIA ST ","San Francisco","CA","94104","37.793268","-122.400323","",""
"49","141","AFC SUSHI @ MOLLIE STONE'S 2","2435 CALIFORNIA ST ","San Francisco","CA","94115","37.788773","-122.434697","",""
"50","146","DEJA VU PIZZA & PASTA","3227 16TH ST ","San Francisco","CA","94103","37.764713","-122.424709","+14155251600",""
"51","151","BUS STOP PIZZA #1","256 DIVISADERO ST ","San Francisco","CA","94117","37.771487","-122.437047","+14155629119",""
"52","155","CAFE COLE","609 COLE ST ","San Francisco","CA","94117","37.769303","-122.450724","+14155667771",""
"53","164","SAN FRANCISCO SOUP CO","50 POST ST, 3RD FLOOR","San Francisco","CA","94104","37.789064","-122.402861","",""
"54","178","C & Y CAFE","400 CALIFORNIA ST  3RD FLOOR","San Francisco","CA","94104","37.793128","-122.401395","",""
"55","179","SECRET GARDEN TEA HOUSE","721 LINCOLN WAY ","San Francisco","CA","94122","37.765933","-122.465809","+14155812403",""
"56","180","NENAS RESTAURANT","3459 MISSION ST ","San Francisco","CA","94110","37.74146","-122.422484","+14155288985",""
"57","184","RADIO HAVANA","1109 VALENCIA ST","San Francisco","CA","94110","37.755124","-122.420916","+14155827659",""
"58","187","TAZA WRAPS & JUICE","750 FONT, BLDG B BLVD ","San Francisco","CA","94132","37.723054","-122.483612","+14155374525",""
"59","190","COURTYARD BY MARRIOTT-STAFF KITCHEN","299 02ND ST ","San Francisco","CA","94105","37.785614","-122.396693","",""
"60","192","ARLEQUIN","384B HAYES ST","San Francisco","CA","94102","37.777014","-122.422345","",""
"61","194","BAYSIDE COFFEE SHOP","2011 BAYSHORE BLVD ","San Francisco","CA","94134","37.715126","-122.398901","+14155462023",""
"62","198","SUBWAY","3801 03RD ST 310","San Francisco","CA","94124","37.741829","-122.388098","",""
"63","199","TIFFANY'S CAFE","3801 03RD ST 535","San Francisco","CA","94124","37.741829","-122.388098","",""
"64","200","JIM'S SMOKE SHOP","600 20TH ST ","San Francisco","CA","94107","37.760568","-122.387772","",""
"65","201","CHEZ PAPA","1401 18TH ST ","San Francisco","CA","94107","37.762543","-122.396739","",""
"66","208","CONSTANS GROCERY","4124 03RD ST ","San Francisco","CA","94124","37.739961","-122.389003","",""
"67","216","SORABOL","101 SPEAR ST ","San Francisco","CA","94105","37.792577","-122.393992","",""
"68","217","PROGRESSIVE GROUNDS","400 CORTLAND AVE ","San Francisco","CA","94110","37.739143","-122.417653","",""
"69","219","CUP OF BLUES","900 22ND ST ","San Francisco","CA","94107","37.757838","-122.390382","",""
"70","221","NOODLE EXPRESS","1235 VAN NESS AVE ","San Francisco","CA","94109","37.787076","-122.421822","",""
"71","226","GRUMPY'S AMERICAN PUB","125 VALLEJO ST ","San Francisco","CA","94111","37.799594","-122.400586","",""
"72","229","BANGKOK RESTAURANT","0301 KEARNY ST","San Francisco","CA","94108","37.790779","-122.404101","",""
"73","230","GLOBE EATS INC","290 PACIFIC AVE ","San Francisco","CA","94111","37.797738","-122.400603","",""
"74","231","CAFFE PUCCINI","411 COLUMBUS AVE ","San Francisco","CA","94133","37.799087","-122.408488","",""
"75","234","NEW MOON RESTAURANT","1247 STOCKTON ST ","San Francisco","CA","94133","37.797303","-122.408574","",""
"76","236","GELATO CLASSICO ITALIAN ICE","576 UNION ST ","San Francisco","CA","94133","37.800543","-122.408784","",""
"77","239","JUST WONTON","1241 VICENTE ST ","San Francisco","CA","94116","37.739063","-122.480409","",""
"78","240","MIKI RESTAURANT","3639 BALBOA ST ","San Francisco","CA","94121","37.775663","-122.497949","",""
"79","247","TOY BOAT DESSERT CAFE","401 CLEMENT ST ","San Francisco","CA","94118","37.782953","-122.46351","",""
"80","251","BEANERY INC.","602 IRVING ST ","San Francisco","CA","94122","37.764148","-122.464391","+14155661090",""
"81","253","ANN'S DONUT COFFEE SHOP","4488 MISSION ST ","San Francisco","CA","94112","37.725949","-122.433906","+14155331761",""
"82","256","MARCHE CLUB OF S.F.","4346 MISSION ST ","San Francisco","CA","94112","37.727983","-122.432101","",""
"83","257","JOE'S CABLE CAR RESTAURANT","4320 MISSION ST ","San Francisco","CA","94112","37.728343","-122.431722","+14155336699",""
"84","258","VIKINGS GIANT SUBMARINE","1300 OCEAN AVE ","San Francisco","CA","94112","37.72404","-122.456539","+14155334344",""
"85","260","MONTEREY PIZZA","599 MONTEREY BLVD ","San Francisco","CA","94127","37.731523","-122.448711","+14155585858",""
"86","264","MELT!","700 COLUMBUS AVE ","San Francisco","CA","94133","37.801203","-122.411412","",""
"87","267","ASA SUSHI","2365 CHESTNUT ST ","San Francisco","CA","94123","37.800023","-122.442266","",""
"88","268","LOS HERMANOS","2026 CHESTNUT ST ","San Francisco","CA","94123","37.800767","-122.436924","",""
"89","272","ON THE BRIDGE","1581 WEBSTER ST #206","San Francisco","CA","94115","37.785227","-122.431472","+14155927765",""
"90","273","HAI SUN RESTAURANT","3137 LAGUNA ST ","San Francisco","CA","94123","37.800133","-122.431064","",""
"91","274","PESCE","2227 POLK ST ","San Francisco","CA","94109","37.797294","-122.422075","",""
"92","275","BEN & JERRY'S","170 O'FARRELL ST BASEMENT","San Francisco","CA","94102","37.786548","-122.407313","",""
"93","276","CORSAGNA","1668 UNION ST ","San Francisco","CA","94123","37.79826","-122.426748","+14155770527",""
"94","279","INGA DONUTS","1026 HYDE ST ","San Francisco","CA","94109","37.790347","-122.417227","",""
"95","281","PARMA RESTAURANT","3314 STEINER ST ","San Francisco","CA","94123","37.799807","-122.437649","+14155560500",""
"96","283","HAI KY MI GIA","707 ELLIS ST ","San Francisco","CA","94109","37.784193","-122.417967","",""
"97","285","VAN NESS KENO ICE CREAM","26 VAN NESS","San Francisco","CA","94102","37.775867","-122.419356","+14155436868",""
"98","286","PUNJAB KABAB HOUSE","101 EDDY ST ","San Francisco","CA","94102","37.784303","-122.409647","",""
"99","290","BISTRO AIX","3340 STEINER ST ","San Francisco","CA","94123","37.800187","-122.437756","+14155200100",""
"100","298","BAMBOO RESTAURANT","1441 POLK ST ","San Francisco","CA","94109","37.790134","-122.420634","",""
"101","299","YUKOL PLACE THAI CUISINE","2380 LOMBARD ST ","San Francisco","CA","94123","37.799287","-122.440624","",""
"102","300","SUBWAY","2001 VAN NESS AVE ","San Francisco","CA","94109","37.794134","-122.423234","+14155779929",""
"103","302","MOULIN ROUGE","887 GEARY ST ","San Francisco","CA","94109","37.786084","-122.417889","",""
"104","305","PACIFIC CATCH","2027 CHESTNUT ST ","San Francisco","CA","94123","37.800763","-122.436536","+14155441950",""
"105","315","THE POSH BAGEL","495A CASTRO ST","San Francisco","CA","94114","37.760954","-122.434935","",""
"106","318","FIRST CUP","2911 VAN NESS AVE ","San Francisco","CA","94109","37.802454","-122.424854","",""
"107","319","UNION STREET COFFEE ROASTERY","2191 UNION ST ","San Francisco","CA","94123","37.797104","-122.435207","+14155929559",""
"108","320","NAPOLI PIZZA RESTAURANT","1045 POLK ST ","San Francisco","CA","94109","37.786545","-122.419894","+14155882222",""
"109","323","WAYO","1407 VAN NESS AVE ","San Francisco","CA","94109","37.788609","-122.42213","+14155478369",""
"110","325","MIFUNE RESTAURANT","1737 POST ST ","San Francisco","CA","94115","37.785457","-122.430317","+14155920337",""
"111","326","TEN ICHI RESTAURANT","2235 FILLMORE ST ","San Francisco","CA","94115","37.790333","-122.434144","",""
"112","328","MIYAKO","1470 FILLMORE ST","San Francisco","CA","94115","37.783017","-122.432584","",""
"113","332","NANI'S COFFEE","2739 GEARY BLVD ","San Francisco","CA","94118","37.782173","-122.448527","",""
"114","335","POLKERS","2226 POLK ST ","San Francisco","CA","94109","37.797296","-122.421967","",""
"115","337","GORDO TAQUERIA #2","1239 . AVE ","San Francisco","CA","94122","37.758941","-122.48591","",""
"116","379","GIANT SCOOP","2708 SAN BRUNO AVE ","San Francisco","CA","94134","37.727468","-122.403582","+14155465051",""
"117","380","COFFEE CHOICE","300 03RD ST ","San Francisco","CA","94107","37.783517","-122.398668","",""
"118","383","KING LING","683 GEARY ST","San Francisco","CA","94102","37.786543","-122.414536","",""
"119","384","RINCONSITO SALVADORENO","3829 MISSION ST ","San Francisco","CA","94110","37.73571","-122.424528","",""
"120","385","REINA RESTAURANT","5479 MISSION ST ","San Francisco","CA","94112","37.712927","-122.444358","",""
"121","386","ADELITA'S CAKES","3780 MISSION ST ","San Francisco","CA","94110","37.736304","-122.424432","",""
"122","389","CAFE ELENA","1 MARKET ST ","San Francisco","CA","94105","37.794347","-122.394932","",""
"123","393","SUPER STAR RESTAURANT","4919 MISSION ST B","San Francisco","CA","94112","37.719692","-122.438575","",""
"124","394","SF MARRIOTT HOTEL PANTRY 5/F","55 04TH ST ","San Francisco","CA","94103","37.784964","-122.404752","",""
"125","395","SF MARRIOTT HOTEL PANTRY 4/F","55 04TH ST ","San Francisco","CA","94103","37.784964","-122.404752","",""
"126","397","SF MARRIOTT VIEW LOUNGE PANTRY","55 04TH ST ","San Francisco","CA","94103","37.784964","-122.404752","",""
"127","398","HENRY'S CAFETERIA","92 02ND ST ","San Francisco","CA","94105","37.788117","-122.399979","",""
"128","400","COW HOLLOW CATERING","3301 LYON ST ","San Francisco","CA","94123","37.801401","-122.447857","",""
"129","401","STARBUCKS COFFEE","1 MARKET ST ","San Francisco","CA","94105","37.794347","-122.394932","",""
"130","403","HAAGEN-DAZS #561","865 MARKET ST ","San Francisco","CA","94103","37.784317","-122.407563","+14155891550",""
"131","404","ELEVATION SALON & CAFE","451 BUSH ST ","San Francisco","CA","94108","37.790584","-122.404974","",""
"132","409","EL FARO","82 01ST ST ","San Francisco","CA","94105","37.788613","-122.393894","",""
"133","413","HOUSE OF HUNAN","2 TOWNSEND ST ","San Francisco","CA","94107","37.757923","-122.393914","",""
"134","415","CAFE MADELEINE","43 O'FARRELL ST","San Francisco","CA","94108","37.786698","-122.405473","",""
"135","420","BUSTER'S","366 COLUMBUS AVE ","San Francisco","CA","94133","37.798444","-122.407444","",""
"136","421","CAFFE ROMA COFFEE ROASTING CO","526 COLUMBUS AVE ","San Francisco","CA","94133","37.799845","-122.409434","",""
"137","422","MICHELANGELO CAFFE","579 COLUMBUS AVE ","San Francisco","CA","94133","37.800166","-122.410006","",""
"138","423","ORALE TAQUERIA","113 SACRAMENTO ST ","San Francisco","CA","94111","37.794501","-122.39716","",""
"139","424","CHATZ","301 ARKANSAS ST ","San Francisco","CA","94107","37.762334","-122.398416","",""
"140","425","MOCCA","175 MAIDEN LN ","San Francisco","CA","94108","37.788011","-122.406252","",""
"141","428","CAFFE AMBROSIA","14 TRINITY PL ","San Francisco","CA","94104","37.790109","-122.402597","",""
"142","429","CALZONE'S","430 COLUMBUS AVE ","San Francisco","CA","94133","37.798965","-122.408204","",""
"143","430","ROSE PISTOLA","532 COLUMBUS AVE ","San Francisco","CA","94133","37.799915","-122.409544","",""
"144","431","BOHEMIAN CIGAR STORE","566 COLUMBUS AVE ","San Francisco","CA","94133","37.800135","-122.409854","",""
"145","435","VIENI-VIENI","1431 STOCKTON ST ","San Francisco","CA","94133","37.798914","-122.408885","",""
"146","436","NORTH BEACH RESTAURANT","1512 STOCKTON ST ","San Francisco","CA","94133","37.799646","-122.408939","",""
"147","438","HAWAII WEST","729 VALLEJO ST ","San Francisco","CA","94133","37.798494","-122.409337","",""
"148","442","MY CANH RESTAURANT","626 78 ST ","San Francisco","CA","94133","37.797828","-122.407474","",""
"149","443","THE STINKING ROSE","325 COLUMBUS AVE ","San Francisco","CA","94133","37.798306","-122.407327","",""
"150","444","VESUVIO CAFE","255 COLUMBUS AVE ","San Francisco","CA","94133","37.797468","-122.406147","",""
"151","447","L'OSTERIA DEL FORNO","519 COLUMBUS AVE ","San Francisco","CA","94133","37.799837","-122.409517","",""
"152","448","YUET LEE RESTAURANT","1300 STOCKTON ST ","San Francisco","CA","94133","37.797817","-122.408597","",""
"153","457","CHILI-UP!","50 POST ST ","San Francisco","CA","94104","37.789064","-122.402861","",""
"154","462","GARDEN OF EDEN","529 BROADWAY ST ","San Francisco","CA","94133","37.797933","-122.406018","",""
"155","463","SAM'S PIZZA","618 BROADWAY ST ","San Francisco","CA","94133","37.797828","-122.407444","",""
"156","467","YOKOHAMA JAPANESE RESTAURANT","229 COLUMBUS AVE ","San Francisco","CA","94133","37.797416","-122.406006","",""
"157","468","TAQUERIA ZORRO","308 COLUMBUS AVE ","San Francisco","CA","94133","37.798065","-122.406855","",""
"158","469","VIVA PIZZA RESTAURANT","318 COLUMBUS AVE ","San Francisco","CA","94133","37.798065","-122.406855","",""
"159","470","FRANCHINO","347 COLUMBUS AVE ","San Francisco","CA","94133","37.798427","-122.407507","",""
"160","472","MONA LISA RESTAURANT","353 COLUMBUS AVE ","San Francisco","CA","94133","37.798526","-122.407657","",""
"161","473","CAFFE GRECO","423 COLUMBUS AVE ","San Francisco","CA","94133","37.79886","-122.408204","",""
"162","475","MARA'S","503 COLUMBUS AVE ","San Francisco","CA","94133","37.799501","-122.409084","",""
"163","477","IL POLLAIO","555 COLUMBUS AVE ","San Francisco","CA","94133","37.800036","-122.409817","",""
"164","479","RISTORANTE IDEALE","1309 GRANT AVE ","San Francisco","CA","94133","37.799003","-122.407274","",""
"165","480","MO'S GRILL","1322 GRANT AVE ","San Francisco","CA","94133","37.799058","-122.407217","",""
"166","482","SAVOY TIVOLI","1436 GRANT AVE ","San Francisco","CA","94133","37.800061","-122.407398","",""
"167","483","MAY KADEH RESTAURANT","470 GREEN ST ","San Francisco","CA","94133","37.799758","-122.407113","",""
"168","484","COLUMBUS CAFE","562 GREEN ST ","San Francisco","CA","94133","37.799598","-122.408394","",""
"169","485","SILVERHAT BAR, INC","678 GREEN ST ","San Francisco","CA","94133","37.799388","-122.410223","",""
"170","486","TOMMASO","1042 KEARNY ST ","San Francisco","CA","94133","37.797398","-122.405322","",""
"171","488","THE HOUSE","1230 GRANT AVE ","San Francisco","CA","94133","37.798519","-122.407071","",""
"172","489","DOL-HO RESTAURANT","808 PACIFIC AVE ","San Francisco","CA","94133","37.796718","-122.408714","",""
"173","493","CAFÉ DIVINE","1600 STOCKTON ST ","San Francisco","CA","94133","37.800627","-122.409177","+14155983414",""
"174","494","SAN FRANCISCO ATHLETIC CLUB","1630 STOCKTON ST ","San Francisco","CA","94133","37.800897","-122.409189","",""
"175","495","CINECITTA","663 UNION ST ","San Francisco","CA","94133","37.800254","-122.410447","",""
"176","496","CAFFE TRIESTE","601 VALLEJO ST ","San Francisco","CA","94133","37.798744","-122.407408","",""
"177","499","SUTTER STREET CAFE","450 SUTTER ST ","San Francisco","CA","94108","37.789348","-122.407783","",""
"178","500","ROXANNE CAFE","570 POWELL ST","San Francisco","CA","94108","37.790003","-122.408688","",""
"179","502","COURTYARD BY MARRIOTT-COFFEE SHOP","299 02ND ST ","San Francisco","CA","94105","37.785614","-122.396693","",""
"180","503","KIJI RESTAURANT","1009 GUERRERO ST","San Francisco","CA","94110","37.754923","-122.423126","",""
"181","505","QUICKLY","5301 MISSION ST ","San Francisco","CA","94112","37.714458","-122.44277","",""
"182","507","VIKING'S GIANT SUB","2906 DIAMOND ST ","San Francisco","CA","94131","37.733449","-122.434241","",""
"183","508","VICTORIA'S PIZZERIA","3605 BALBOA ST ","San Francisco","CA","94121","37.775653","-122.497387","",""
"184","509","CAFE BAKERY","1365 NORIEGA ST ","San Francisco","CA","94122","37.75409","-122.478248","",""
"185","510","DONUT TIME","2401 NORIEGA ST ","San Francisco","CA","94122","37.753633","-122.48954","",""
"186","515","TAZAKI SUSHI","3420 JUDAH ST ","San Francisco","CA","94122","37.760769","-122.498792","",""
"187","519","SHERATON PALACE - EMP.  CAFETERIA","2 NEW MONTGOMERY ST ","San Francisco","CA","94105","37.788286","-122.401543","",""
"188","520","DAILY HEALTH","1235 09TH AVE ","San Francisco","CA","94122","37.758941","-122.48591","",""
"189","521","CALIFORNIA CRISP","3251 20TH AVE ","San Francisco","CA","94132","37.728497","-122.475639","+14155564254",""
"190","522","BOUDIN SOURDOUGH BAKERY","3251 20TH AVE ","San Francisco","CA","94132","37.728497","-122.475639","+14155561849",""
"191","527","MELISA'S CHINESE CUISINE","0450 BALBOA ST ","San Francisco","CA","94118","37.777292","-122.463496","",""
"192","529","NIZARIO'S PIZZA","3840 GEARY BLVD ","San Francisco","CA","94118","37.781278","-122.460661","",""
"193","538","MARNEE THAI RESTAURANT","2225 IRVING ST ","San Francisco","CA","94122","37.763343","-122.481809","",""
"194","539","EL SALVADOR RESTAURANT","2278 MISSION ST ","San Francisco","CA","94110","37.760579","-122.41932","",""
"195","542","HAMBURGER HAVEN","800 CLEMENT ST ","San Francisco","CA","94118","37.782799","-122.467852","",""
"196","544","THAI TIME RESTAURANT","315 08TH AVE ","San Francisco","CA","94118","37.782534","-122.466615","+14155387992",""
"197","547","LITTLE HENRY'S","3600 BALBOA ST ","San Francisco","CA","94121","37.775728","-122.497522","",""
"198","549","MESCOLANZA","2221 CLEMENT ST ","San Francisco","CA","94121","37.782064","-122.483159","",""
"199","551","GORDO TAQUERIA","2252 CLEMENT ST ","San Francisco","CA","94121","37.782107","-122.483631","",""
"200","552","LOI'S VIETNAMESE RESTAURANT","2228 IRVING ST ","San Francisco","CA","94122","37.763428","-122.481736","",""
"201","557","KATIA'S","600 05TH AVE ","San Francisco","CA","94118","37.77721","-122.462874","+14155669292",""
"202","558","CAJUN PACIFIC","4542 IRVING ST ","San Francisco","CA","94122","37.762304","-122.506543","",""
"203","560","NORA'S MARKET","454 CAPITOL AVE ","San Francisco","CA","94112","37.714782","-122.459026","+14155335068",""
"204","562","DESTINO RESTAURANT","1815 MARKET ST ","San Francisco","CA","94103","37.771437","-122.423892","+14155649016",""
"205","563","HANG FOOK BAKERY & RESTAURANT","1325 OCEAN AVE ","San Francisco","CA","94112","37.723974","-122.456626","+14155335896",""
"206","567","SAN FRANCISCO SOUP COMPANY","1 MARKET ST ","San Francisco","CA","94105","37.794347","-122.394932","",""
"207","573","MUFFIN'S MUFFIN","123 02ND ST ","San Francisco","CA","94105","37.787755","-122.399372","",""
"208","580","TACO LOS ALTOS","737 CORTLAND AVE ","San Francisco","CA","94110","37.738979","-122.414971","",""
"209","581","CAFE LEAH 3","77 BEALE ST ","San Francisco","CA","94105","37.791363","-122.39602","",""
"210","587","NEW TSING TAO RESTAURANT","811 ULLOA ST ","San Francisco","CA","94127","37.740654","-122.465389","+14155569559",""
"211","588","BURRITO EXPRESS","1601 TARAVAL ST ","San Francisco","CA","94116","37.742673","-122.48334","",""
"212","589","WON TON HOUSE","1325 NORIEGA ST ","San Francisco","CA","94122","37.754106","-122.477841","",""
"213","590","HAHN'S HIBACHI #6","535 IRVING ST ","San Francisco","CA","94122","37.764116","-122.463472","",""
"214","591","YOU SEE SUSHI","94 JUDAH ST ","San Francisco","CA","94122","37.762378","-122.462692","+14155684010",""
"215","595","MAY LEE'S RESTAURANT","1256 07TH AVE ","San Francisco","CA","94122","37.764854","-122.464186","",""
"216","597","CAFFE DEL SOLE","4342 CALIFORNIA ST ","San Francisco","CA","94118","37.785068","-122.464194","",""
"217","601","IRVING CAFE & DELI","2146 IRVING ST ","San Francisco","CA","94122","37.763428","-122.481131","",""
"218","606","TSING TAO RESTAURANT","3107 CLEMENT ST ","San Francisco","CA","94121","37.781624","-122.492609","",""
"219","610","POMELO","92 JUDAH ST ","San Francisco","CA","94122","37.762378","-122.462692","+14155736175",""
"220","615","J & A RESTAURANT","5712 MISSION ST ","San Francisco","CA","94112","37.709857","-122.449709","+14155336688",""
"221","616","BEEP'S BURGER","1051 OCEAN AVE ","San Francisco","CA","94112","37.723414","-122.453867","",""
"222","619","A-1 BAKERY","1727 OCEAN AVE ","San Francisco","CA","94112","37.724824","-122.460726","+14155586923",""
"223","625","CALIFORNIA TENNIS CLUB","2455 BUSH ST ","San Francisco","CA","94115","37.786463","-122.437657","",""
"224","627","EDDIES CAFE","800 DIVISADERO ST ","San Francisco","CA","94117","37.776898","-122.438098","",""
"225","628","EL BURRITO EXPRESS #2","1812 DIVISADERO ST ","San Francisco","CA","94115","37.786407","-122.440057","",""
"226","631","SUBWAY SANDWICHES & SALADS","1500 FILLMORE ST ","San Francisco","CA","94115","37.78332","-122.432647","",""
"227","632","ARANG RESTAURANT","1506 FILLMORE ST ","San Francisco","CA","94115","37.783374","-122.432657","",""
"228","634","KING LEE'S RESTAURANT","1426A FILLMORE ST ","San Francisco","CA","94115","37.782632","-122.432504","",""
"229","639","SWAN OYSTER DEPOT","1517 POLK ST ","San Francisco","CA","94109","37.790734","-122.420783","",""
"230","642","ANDERSEN BAKERY","1737 POST ST ","San Francisco","CA","94115","37.785457","-122.430317","+14155565712",""
"231","645","TAN-TAN","1825 POST ST #223","San Francisco","CA","94115","37.785274","-122.431918","+14155346260",""
"232","651","FUKI SUSHI","1581 WEBSTER ST ","San Francisco","CA","94115","37.785227","-122.431472","+14155343030",""
"233","657","ZAZANG RESTAURANT","2340 GEARY BLVD ","San Francisco","CA","94115","37.783088","-122.441863","",""
"234","659","GOLDEN COFFEE","901 SUTTER ST ","San Francisco","CA","94109","37.788322","-122.415218","",""
"235","665","BRAZEN HEAD RESTAURANT","3166 BUCHANAN ST ","San Francisco","CA","94123","37.799218","-122.432517","",""
"236","667","U-LEE RESTAURANT","1468 HYDE ST ","San Francisco","CA","94109","37.794448","-122.418057","",""
"237","670","VIKINGS GIANT SUBMARINE SANDWICHES","1418 LOMBARD ST ","San Francisco","CA","94123","37.801334","-122.424905","",""
"238","673","LOMBARD ALIVE SHOP","1972 LOMBARD ST ","San Francisco","CA","94123","37.800137","-122.433984","+14155862536",""
"239","674","GHIRARDELLI CHOCOLATE COMPANY & CAFÉ","900 NORTH POINT ST #142","San Francisco","CA","94109","37.805427","-122.422854","",""
"240","687","KITCHEN KURA","1525 IRVING ST ","San Francisco","CA","94122","37.763638","-122.474196","+14155732054",""
"241","688","GOEMON","1524 IRVING ST ","San Francisco","CA","94112","37.763708","-122.474362","+14155662288",""
"242","691","MARINA SUBMARINE","2299 UNION ST ","San Francisco","CA","94123","37.796893","-122.436847","",""
"243","695","BARBARY COAST PASTRY & COFFEE","55 CYRIL MAGNIN ST ","San Francisco","CA","94102","37.784965","-122.408614","",""
"244","696","NEW YORK NEW YORK PIZZA KITCHEN","127 EDDY ST","San Francisco","CA","94102","37.784303","-122.409647","",""
"245","700","BAMBOO GARDEN","407 ELLIS ST ","San Francisco","CA","94102","37.784829","-122.412912","",""
"246","703","THEM KY RESTAURANT","717 ELLIS ST ","San Francisco","CA","94109","37.784193","-122.417967","",""
"247","708","CVE, INC. (409 )","101 GROVE ST","San Francisco","CA","94102","37.778384","-122.418696","",""
"248","709","MONG THU COFFEE SHOP","248 HYDE ST","San Francisco","CA","94102","37.783041","-122.415719","",""
"249","711","HARRY HARRINGTON'S","460 LARKIN ST ","San Francisco","CA","94102","37.78202","-122.417195","",""
"250","712","SAIGON SANDWICHES","560 LARKIN ST ","San Francisco","CA","94102","37.782948","-122.417379","",""
"251","722","TAYLOR STREET COFFEE SHOP","375 TAYLOR ST ","San Francisco","CA","94102","37.785775","-122.411337","",""
"252","726","BEN WAH RESTAURANT","2786 CALIFORNIA ST ","San Francisco","CA","94115","37.788138","-122.440174","",""
"253","727","FOOD INC.","2800 CALIFORNIA ST ","San Francisco","CA","94115","37.788068","-122.440705","",""
"254","728","CUMAICA COFFEE COMPANY","2800 CALIFORNIA","San Francisco","CA","94115","37.788068","-122.440705","",""
"255","729","ASHOKA INDIAN CUISINE","2034 CHESTNUT ST ","San Francisco","CA","94123","37.800758","-122.437024","",""
"256","730","ALL STAR DONUTS","2095 CHESTNUT ST ","San Francisco","CA","94123","37.800563","-122.437773","",""
"257","741","MOZZARELLA DI BUFALA PIZZERIA II","069 WEST PORTAL AVE ","San Francisco","CA","94127","37.740052","-122.466544","+14155668900",""
"258","744","CAFÉ BELLINI","865 MARKET ST C45","San Francisco","CA","94103","37.784317","-122.407563","+14155341075",""
"259","750","123 DELI - LEE'S","123 MISSION ST ","San Francisco","CA","94105","37.788613","-122.393894","",""
"260","754","EDUCATED PALATE RESTAURANT","800 MISSION ST ","San Francisco","CA","94103","37.784323","-122.404549","+14155266510",""
"261","758","BAKERY/ICE CREAM/STOREROOM","2 NEW MONTGOMERY ST ","San Francisco","CA","94105","37.788286","-122.401543","",""
"262","759","KYO-YA RESTAURANT","2 NEW MONTGOMERY ST ","San Francisco","CA","94105","37.788286","-122.401543","",""
"263","760","TART TO TART","90 NEW MONTGOMERY ST ","San Francisco","CA","94105","37.787598","-122.40071","",""
"264","765","APERTO RESTAURANT","1434 18TH ST ","San Francisco","CA","94107","37.762568","-122.397192","",""
"265","768","MOSHI MOSHI","2092 03RD ST ","San Francisco","CA","94107","37.763187","-122.388895","",""
"266","770","CROWN DONUTS","4000 03RD ST ","San Francisco","CA","94124","37.741041","-122.388652","",""
"267","773","MARIPOSA HUNTERS POINT YACHT CLUB","405 TERRY FRANCOIS BLVD ","San Francisco","CA","94107","37.77325","-122.387222","",""
"268","774","BAY VIEW BOAT CLUB","429 TERRY FRANCOIS ST","San Francisco","CA","94107","37.772667","-122.387032","",""
"269","777","TOP'S CAFETERIA","66 DORMAN AVE ","San Francisco","CA","94124","37.739557","-122.403378","",""
"270","782","MONTE CRISTO SOCIAL CLUB","136 MISSOURI ST ","San Francisco","CA","94107","37.764627","-122.396764","",""
"271","783","LA CARNE ASADA RESTAURANT","3515 MISSION ST ","San Francisco","CA","94110","37.740804","-122.422934","+14155825852",""
"272","786","PIPERADE","1015 BATTERY ST ","San Francisco","CA","94111","37.800674","-122.401484","",""
"273","790","PAUL MART","10 LOMBARD ST ","San Francisco","CA","94111","37.804211","-122.402341","",""
"274","792","BOUDIN BAKERY","PIER 39  FRONT","San Francisco","CA","94133","37.791924","-122.398588","",""
"275","795","BEN & JERRY'S","PIER 41","San Francisco","CA","94133","37.808494","-122.412","",""
"276","796","HUNAN RESTAURANT","924 SANSOME ST ","San Francisco","CA","94111","37.798987","-122.402307","",""
"277","798","SUSHI RAPTURE","1400 LEAVENWORTH ST ","San Francisco","CA","94109","37.793997","-122.416267","",""
"278","799","COURTYARD BY MARRIOTT AT FISHERMAN'S WHARF","580 BEACH ST ","San Francisco","CA","94133","37.806964","-122.41862","",""
"279","805","MAGIC WOK","84 09TH ST ","San Francisco","CA","94103","37.774722","-122.406761","+14155700128",""
"280","809","TRIPTYCH","1155 FOLSOM ST ","San Francisco","CA","94103","37.775797","-122.409002","+14155256263",""
"281","811","EDEN PLAZA CAFE","600 HARRISON ST ","San Francisco","CA","94107","37.783954","-122.395699","",""
"282","812","CVE CAFE, THE","1380 HOWARD ST. #5","San Francisco","CA","94103","37.774243","-122.41416","",""
"283","816","B & J QUARTER POUNDER BURGERS","6202 03RD ST ","San Francisco","CA","94124","37.722374","-122.395841","",""
"284","818","WENDY'S CHEESE CAKE BAKERY","4942 03RD ST ","San Francisco","CA","94124","37.733441","-122.391303","",""
"285","824","BABY'S EATERY AND PALABOK","4609 MISSION ST ","San Francisco","CA","94112","37.724579","-122.434879","",""
"286","826","ANGELINA'S DELI-CAFE & CATERING","6000 CALIFORNIA ST ","San Francisco","CA","94121","37.784038","-122.481982","",""
"287","827","TAQUERIA EL FAROLITO NO. 2","4817 MISSION ST ","San Francisco","CA","94112","37.721251","-122.437385","",""
"288","828","WALLY'S DIM SUM RESTAURANT","5125 MISSION ST ","San Francisco","CA","94112","37.716843","-122.440654","",""
"289","830","LOS PLANES DE RENDEROS","12 PERSIA AVE ","San Francisco","CA","94112","37.723078","-122.435966","",""
"290","831","LA PLACITA MEXICATESSEN","2531 SAN BRUNO AVE ","San Francisco","CA","94134","37.729753","-122.40447","",""
"291","835","KAM PO KITCHEN","801 BROADWAY ST ","San Francisco","CA","94133","37.797223","-122.410513","",""
"292","840","MOLINARI DELICATESSEN","373 COLUMBUS AVE ","San Francisco","CA","94133","37.798556","-122.407707","",""
"293","842","DA FLORA","701 COLUMBUS AVE ","San Francisco","CA","94133","37.801086","-122.411411","",""
"294","843","ESTIA RESTAURANT","1224 GRANT AVE ","San Francisco","CA","94133","37.798328","-122.407067","",""
"295","845","CAFE JACQUELINE","1454 GRANT AVE ","San Francisco","CA","94133","37.800428","-122.407517","+14155985565",""
"296","847","GOLDEN BOY PIZZA","542 GREEN ST ","San Francisco","CA","94133","37.799648","-122.408033","",""
"297","850","CAFFE SPORT","574 GREEN ST ","San Francisco","CA","94133","37.799588","-122.408514","",""
"298","852","NEW HOLLYWOOD BAKERY & RESTAURANT","652 PACIFIC AVE ","San Francisco","CA","94133","","","",""
"299","853","MEE HEONG BAKERY","1343 POWELL ST ","San Francisco","CA","94133","37.796994","-122.410194","",""
"300","854","FIRENZE BY NIGHT","1421 STOCKTON ST","San Francisco","CA","94133","37.798914","-122.408885","",""
"301","856","DELFINA RESTAURANT","3621 18TH ST ","San Francisco","CA","94110","37.761514","-122.424318","+14155554094",""
"302","860","CUP A JOE COFFEEHOUSE","896 SUTTER ST ","San Francisco","CA","94109","37.788438","-122.414994","",""
"303","865","CANTEEN","817 SUTTER ST ","San Francisco","CA","94109","37.788514","-122.413957","",""
"304","870","YAN'S KITCHEN","57 COLUMBUS AVE ","San Francisco","CA","94111","37.796208","-122.404308","",""
"305","873","THE COFFEE ROASTER, INC.","536 DAVIS ST ","San Francisco","CA","94111","37.79739","-122.398319","",""
"306","874","PANCHO'S SALSA BAR & GRILL","1639 POLK ST ","San Francisco","CA","94109","37.792093","-122.421024","",""
"307","876","PATPONG THAI CUISINE, INC.","2415 CLEMENT ST ","San Francisco","CA","94121","37.781973","-122.48522","",""
"308","880","DELICIOUS DIM SUM","752 JACKSON ST ","San Francisco","CA","94133","37.795974","-122.407574","",""
"309","884","HOUSE OF NANKING","919 KEARNY ST ","San Francisco","CA","94133","37.796463","-122.405224","",""
"310","885","CHEF JIA'S RESTAURANT","925 KEARNY ST ","San Francisco","CA","94133","37.796463","-122.405224","",""
"311","886","LE PETIT CAFE","1 MARITIME PLAZA  ","San Francisco","CA","94111","37.795227","-122.39914","",""
"312","891","LUCKY CREATION VEGETARIAN RESTAURANT LLC","854 WASHINGTON ST ","San Francisco","CA","94108","37.795078","-122.407433","",""
"313","892","HAPPY DONUTS","100 BUSH ST #101","San Francisco","CA","94104","37.791348","-122.399834","",""
"314","902","MARCELLO'S PIZZA","420 CASTRO ST ","San Francisco","CA","94114","37.762057","-122.435145","+14155863900",""
"315","903","SABRA RESTAURANT","419 GRANT AVE","San Francisco","CA","94108","37.790874","-122.405634","+14155983656",""
"316","905","WORKING GIRLS' CAFE'","0259 KEARNY ST","San Francisco","CA","94108","37.790477","-122.404033","",""
"317","910","FRONT DOOR CAFE","444 MARKET ST ","San Francisco","CA","94111","37.791514","-122.398608","",""
"318","911","CAFE DOLCI","740 MARKET ST ","San Francisco","CA","94102","37.787153","-122.404148","",""
"319","913","456 DELI & CAFE","456 MONTGOMERY ST ","San Francisco","CA","94104","37.793457","-122.402766","",""
"320","917","TOWN & COUNTRY CLUB","218 STOCKTON ST","San Francisco","CA","94108","37.787927","-122.406607","",""
"321","919","RITZ-CARLTON, SF -  P-37 RESTAURANT AND BAR","600 STOCKTON ST 4TH FLOOR","San Francisco","CA","94108","37.791757","-122.407377","",""
"322","920","RITZ-CARLTON SF - CLUB LOUNGE","600 STOCKTON ST 8TH FLOOR","San Francisco","CA","94108","37.791757","-122.407377","",""
"323","921","RITZ-CARLTON SF - PANTRY PREP ROOM AND LOBBY BAR","600 STOCKTON ST 4TH FLOOR","San Francisco","CA","94108","37.791757","-122.407377","",""
"324","927","GOLDEN GATE PARK GOLF COURSE"," GOLDEN GATE PARK  ","San Francisco","CA","94121","37.776695","-122.495014","",""
"325","929","CAFE ETHIOPIA","0878 VALENCIA ST","San Francisco","CA","94110","37.758832","-122.421359","+14155319097",""
"326","935","PEKING WOK RESTAURANT","4920 03RD ST ","San Francisco","CA","94124","37.733891","-122.391183","",""
"327","941","TWO JACKS SEAFOOD #2","984 GILMAN AVE ","San Francisco","CA","94124","37.718016","-122.387696","",""
"328","943","EL CASTILLITO TAQUERIA INC.","136 CHURCH ST ","San Francisco","CA","94114","37.768776","-122.429095","+14155623428",""
"329","949","BUFFALO BURGERS RESTAURANT","5317-19 GEARY BLVD","San Francisco","CA","94121","37.780372","-122.476354","",""
"330","950","IRVING PIZZA","1825 IRVING ST ","San Francisco","CA","94122","37.763513","-122.47764","",""
"331","951","KENTUCKY FRIED CHICKEN #50","1900 IRVING ST ","San Francisco","CA","94122","37.763528","-122.478362","",""
"332","952","SHANGRILA VEGETARIAN REST","2026 IRVING ST ","San Francisco","CA","94122","37.763512","-122.47958","",""
"333","960","FREDDY'S OCEAN BEACH DELI","734 LA PLAYA ST ","San Francisco","CA","94121","37.774462","-122.510057","",""
"334","961","JAVA BEACH CAFE","1396 LA PLAYA ST ","San Francisco","CA","94122","37.760416","-122.509106","",""
"335","966","L'AVENIDA","511 IRVING ST ","San Francisco","CA","94122","37.764143","-122.463378","",""
"336","968","GOLDEN ISLAND CAFE","1300 NORIEGA ST ","San Francisco","CA","94122","37.754188","-122.477822","",""
"337","969","LITTLE BEIJING RESTAURANT","1316 NORIEGA ST","San Francisco","CA","94122","37.754188","-122.477822","",""
"338","970","PINE RESTAURANT","1330 NORIEGA ST ","San Francisco","CA","94122","37.754178","-122.478132","",""
"339","972","MING TAI WUN TUN NOODLE, INC.","2455 NORIEGA ST ","San Francisco","CA","94122","37.753614","-122.490219","",""
"340","977","BAY PASTRY, THE","1018 TARAVAL ST ","San Francisco","CA","94116","37.742998","-122.477211","",""
"341","983","HONG'S SZECHUAN RESTAURANT","3044 TARAVAL ST ","San Francisco","CA","94116","37.742048","-122.499002","",""
"342","984","VANIDA THAI KITCHEN","3050 TARAVAL ST ","San Francisco","CA","94116","37.742086","-122.498738","",""
"343","985","THE SUNSET'S BEST SEAFOOD RESTAURANT","3060 TARAVAL ST ","San Francisco","CA","94116","37.742048","-122.499002","",""
"344","986","CUTLET HOUSE CAFE","3560 TARAVAL ST ","San Francisco","CA","94116","37.741808","-122.504452","",""
"345","988","SUBMARINE CENTER","820 ULLOA ST ","San Francisco","CA","94127","37.740755","-122.465456","",""
"346","991","VILLAGE GRILL, THE","160 WEST PORTAL AVE ","San Francisco","CA","94127","37.739123","-122.467781","+14155685299",""
"347","992","PARK DELI CAFE","595 BUCKINGHAM WAY ","San Francisco","CA","94132","37.730149","-122.47607","+14155751898",""
"348","993","CHICK-N-DELI","5392 MISSION ST ","San Francisco","CA","94112","37.713702","-122.443681","+14155335215",""
"349","994","RAILROAD EXPRESSO CAFE","705 MONTEREY BLVD ","San Francisco","CA","94127","37.731513","-122.45133","+14155334009",""
"350","995","JO JO'S CAFE","1537 OCEAN AVE ","San Francisco","CA","94112","37.724423","-122.458855","+14155459618",""
"351","999","SERRANO'S PIZZA II","3274 21ST ST ","San Francisco","CA","94110","37.756997","-122.420534","+14155691615",""
"352","1000","HEUNG YUEN RESTAURANT","3279 22ND ST ","San Francisco","CA","94110","37.755282","-122.420493","",""
"353","1001","CAFE VENICE","3325 24TH ST ","San Francisco","CA","94110","37.752183","-122.419128","+14155643385",""
"354","1002","BIG MOUTH BURGERS","3392 24TH ST ","San Francisco","CA","94110","37.752158","-122.420362","",""
"355","1003","RINCON PERUANO RESTAURANT","3364 26TH ST ","San Francisco","CA","94110","37.749128","-122.417402","",""
"356","1005","CHAVITA'S MEXICAN RESTAURANT","3006 MISSION ST","San Francisco","CA","94110","37.748855","-122.418134","+14155286927",""
"357","1008","VALENCIA PIZZA & PASTA","801 VALENCIA ST ","San Francisco","CA","94110","37.759944","-122.421356","+14155823494",""
"358","1010","CREPEVINE, THE","624 IRVING ST ","San Francisco","CA","94122","37.764137","-122.464672","+14155685858",""
"359","1018","PETES BARBEQUE","2399 MISSION ST ","San Francisco","CA","94110","37.758684","-122.418975","+14155821009",""
"360","1021","LA SANTANECA DE LA MISSION","2815 MISSION ST","San Francisco","CA","94110","37.751885","-122.418406","+14155282131",""
"361","1022","DAK WIN RESTAURANT","2845 MISSION ST","San Francisco","CA","94110","37.751454","-122.418356","+14155284455",""
"362","1026","PHUKET THAI RESTAURANT","248 DIVISADERO ST ","San Francisco","CA","94117","37.771117","-122.436976","+14155979594",""
"363","1027","KK CAFE","252 DIVISADERO ST ","San Francisco","CA","94117","37.771487","-122.437047","+14155626188",""
"364","1031","IL BORGO","500 FELL ST ","San Francisco","CA","94102","37.775538","-122.426264","",""
"365","1036","ALAMO SQUARE","803 FILLMORE ST ","San Francisco","CA","94117","37.776944","-122.431444","",""
"366","1038","GO GETTERS PIZZA","69 GOUGH ST ","San Francisco","CA","94102","37.773342","-122.422283","+14155621401",""
"367","1040","CUCO'S RESTAURANT","488 HAIGHT ST ","San Francisco","CA","94117","37.772178","-122.430234","+14155868187",""
"368","1042","LOVE 'N HAIGHT COFFEE & DELI","553 HAIGHT ST ","San Francisco","CA","94117","37.771964","-122.431336","+14155258190",""
"369","1043","CENTRAL COFFEE TEA & SPICE","1696 HAYES ST ","San Francisco","CA","94117","37.774198","-122.444214","",""
"370","1047","PORK STORE CAFE","1451 HAIGHT ST ","San Francisco","CA","94117","37.770063","-122.446247","+14155866981",""
"371","1048","CREPE EXPRESS","1476 HAIGHT ST ","San Francisco","CA","94117","37.770068","-122.446644","",""
"372","1050","RED VICTORIAN","1665 HAIGHT ST ","San Francisco","CA","94117","37.769583","-122.449937","+14155861978",""
"373","1060","BEAN THERE","201 STEINER ST ","San Francisco","CA","94117","37.771123","-122.431953","",""
"374","1062","CAFETIN SONIA","2943 16TH ST ","San Francisco","CA","94103","37.765093","-122.418489","+14155437551",""
"375","1064","MAVERICK","3316 17TH ST ","San Francisco","CA","94110","37.763454","-122.419914","",""
"376","1065","UNIVERSAL CAFE","2814 19TH ST ","San Francisco","CA","94110","37.760487","-122.410662","",""
"377","1074","WOODWARD'S GARDEN","1700 MISSION ST ","San Francisco","CA","94103","37.769855","-122.420195","+14155627122",""
"378","1075","SANDWICH PLACE, THE","2029 MISSION ST ","San Francisco","CA","94110","37.764384","-122.419566","+14155433811",""
"379","1077","JEFF'S SUB SHOP","1101 POTRERO AVE ","San Francisco","CA","94110","37.754324","-122.406373","",""
"380","1081","ARINELL PIZZA","509 VALENCIA ST ","San Francisco","CA","94110","37.764744","-122.421803","+14155251303",""
"381","1085","STARBUCKS COFFEE","333 MARKET ST ","San Francisco","CA","94105","37.792037","-122.397852","",""
"382","1087","KATZ BAGELS","606 MISSION ST ","San Francisco","CA","94105","37.787824","-122.400069","",""
"383","1090","TRICOLORE CAFFE' AND PIZZERIA","590 WASHINGTON ST ","San Francisco","CA","94111","37.795614","-122.403104","",""
"384","1091","LES CROISSANT","2 CALIFORNIA ST","San Francisco","CA","94111","37.793716","-122.396398","",""
"385","1093","YOUNG'S BBQ","3412 17TH ST ","San Francisco","CA","94110","37.763335","-122.422094","",""
"386","1098","CREIGHTON'S CHEESE & FINE FOOD","673 PORTOLA DR ","San Francisco","CA","94127","37.744736","-122.452666","+14155750750",""
"387","1102","HOANG DAT COFFEE SHOP","930 GEARY ST ","San Francisco","CA","94109","37.786068","-122.418644","",""
"388","1103","STARBUCKS COFFEE","4094 18TH ST ","San Francisco","CA","94114","37.760938","-122.434692","",""
"389","1111","SUBWAY 16604","753 POLK ST ","San Francisco","CA","94109","37.783713","-122.419357","+14155921055",""
"390","1116","STARBUCKS COFFEE","1899 UNION ST ","San Francisco","CA","94123","37.797713","-122.430336","+14155924049",""
"391","1122","STARBUCKS COFFEE","2132 CHESTNUT ST ","San Francisco","CA","94123","37.800547","-122.438494","",""
"392","1124","SQUAT & GOBBLE CAFE #3","3600 16TH ST ","San Francisco","CA","94114","37.764248","-122.433392","",""
"393","1125","PEETS COFFEE & TEA, INC","022 BATTERY ST","San Francisco","CA","94111","37.791554","-122.399565","",""
"394","1127","STARBUCKS COFFEE","555 CALIFORNIA ST ","San Francisco","CA","94104","37.792773","-122.403567","",""
"395","1135","GEARY DRIVE IN","2500 GEARY BLVD ","San Francisco","CA","94115","37.782778","-122.444744","",""
"396","1139","MINI CAFE","28 VAN NESS","San Francisco","CA","94102","37.775867","-122.419356","+14155430177",""
"397","1144","STAR BAGELS","1475 POLK ST ","San Francisco","CA","94109","37.790324","-122.420664","",""
"398","1146","AUX DELICES VIETNAM","2327 POLK ST ","San Francisco","CA","94109","37.798274","-122.422264","",""
"399","1147","UA TWIN STONESTOWN","501 BUCKINGHAM WAY  ","San Francisco","CA","94132","37.730105","-122.478441","+14155680331",""
"400","1151","POMELO ON CHURCH","1793 CHURCH ST","San Francisco","CA","94131","37.742325","-122.426476","",""
"401","1154","SUNFLOWER RESTAURANT","506 VALENCIA ST ","San Francisco","CA","94103","37.764678","-122.421905","+14155625023",""
"402","1156","BOUDIN PETIT CAFÉ","170 O'FARRELL ST, 1ST FLOOR","San Francisco","CA","94102","37.786548","-122.407313","",""
"403","1157","SUTTER CAFÉ","330 SUTTER ST ","San Francisco","CA","94108","37.789625","-122.405894","",""
"404","1159","ZONA ROSA","1797 HAIGHT ST ","San Francisco","CA","94117","37.769363","-122.451667","+14155667717",""
"405","1170","PAKWAN","501 O'FARRELL ST ","San Francisco","CA","94102","37.785753","-122.413158","",""
"406","1172","BALBOA SUSHI HOUSE","0402 BALBOA ST ","San Francisco","CA","94118","37.777315","-122.463004","",""
"407","1186","TULLY'S  COFFEE","2455 FILLMORE ST ","San Francisco","CA","94115","37.792071","-122.434535","",""
"408","1188","OKINA SUSHI","776 ARGUELLO BLVD ","San Francisco","CA","94118","37.775723","-122.458445","",""
"409","1190","MUGUBOKA","0401 BALBOA ST ","San Francisco","CA","94118","37.777206","-122.462975","",""
"410","1191","TEKKA JAPANESE RESTAURANT","0537 BALBOA ST ","San Francisco","CA","94118","37.77714","-122.464412","",""
"411","1193","PEET'S COFFEES & TEAS","3419 CALIFORNIA ST ","San Francisco","CA","94118","37.786754","-122.450476","",""
"412","1194","SWEET THINGS","3585 CALIFORNIA ST ","San Francisco","CA","94118","37.786453","-122.452807","",""
"413","1199","PANCHO'S","3440 GEARY BLVD ","San Francisco","CA","94118","37.781507","-122.456176","",""
"414","1203","TAWAN'S THAI FOOD","4403 GEARY BLVD ","San Francisco","CA","94118","37.780834","-122.46659","",""
"415","1204","ROYAL GROUND COFFEE","5301 GEARY BLVD ","San Francisco","CA","94121","37.780394","-122.47641","",""
"416","1205","MINAKO JAPANESE RESTAURANT","2154 MISSION ST ","San Francisco","CA","94110","37.762536","-122.419475","+14155861888",""
"417","1207","TAQUERIA LA PAZ","305 TURK ST ","San Francisco","CA","94102","37.782732","-122.414139","+14155677550",""
"418","1208","SBC PIZZA DELI","737 03RD ST ","San Francisco","CA","94107","37.778553","-122.392331","",""
"419","1212","HAPPY DONUTS","2600 BAYSHORE BLVD ","San Francisco","CA","94134","37.708783","-122.405312","+14155465309",""
"420","1216","ZAOH RESTAURANT","1555 MISSION ST ","San Francisco","CA","94103","37.773467","-122.418093","+14155433930",""
"421","1219","PAZZO","2 HENRY ADAMS ST ","San Francisco","CA","94103","37.769287","-122.403974","",""
"422","1231","YAMO RESTAURANT","3406 18TH ST ","San Francisco","CA","94110","37.761882","-122.419599","",""
"423","1232","SUNFLOWER CAFE","284 O'FARRELL ST ","San Francisco","CA","94102","37.786316","-122.409371","",""
"424","1235","CURRAN THEATRE","445 GEARY ST ","San Francisco","CA","94102","37.787019","-122.410593","",""
"425","1236","MITCHELL BROTHERS","895 O'FARRELL ST ","San Francisco","CA","94109","37.78493","-122.419424","",""
"426","1237","ALEX GOURMET BURRITO","545 SANSOME ST #207B","San Francisco","CA","94111","37.795521","-122.401623","",""
"427","1241","BANWICH","1105 TARAVAL ST ","San Francisco","CA","94116","37.742895","-122.477898","",""
"428","1243","JAVA SUPREME","0703 GUERRERO ST","San Francisco","CA","94110","37.759934","-122.423553","+14155201832",""
"429","1244","THANH THANH","2205 CLEMENT ST ","San Francisco","CA","94121","37.782053","-122.482799","",""
"430","1249","KABABAYAN FAST FOOD","2706 MISSION ST","San Francisco","CA","94110","37.753691","-122.418657","+14155929635",""
"431","1259","KD'S GROG & GROCERY","2416 MARKET ST ","San Francisco","CA","94114","37.762602","-122.435384","+14155863736",""
"432","1261","REVERIE COFFEE CAFE","848 COLE ST ","San Francisco","CA","94117","37.766097","-122.449997","+14155240200",""
"433","1262","NORTH BEACH PIZZA","800 STANYAN ST ","San Francisco","CA","94117","37.767286","-122.453075","+14155752300",""
"434","1263","LAVA JAVA","852 STANYAN ST ","San Francisco","CA","94117","37.766812","-122.452974","+14155757375",""
"435","1265","STARBUCKS COFFEE","744 IRVING ST ","San Francisco","CA","94122","37.764088","-122.465981","+14155850888",""
"436","1266","JAMBA JUICE","1300 9TH AVE ","San Francisco","CA","94122","37.763989","-122.466246","",""
"437","1267","360 GOURMET BURRITOS","1 MARKET ST ","San Francisco","CA","94105","37.794347","-122.394932","",""
"438","1269","STARBUCKS COFFEE","201 SPEAR ST ","San Francisco","CA","94105","37.790944","-122.392051","",""
"439","1273","JAY'S CHEESESTEAK #2","553 DIVISADERO ST ","San Francisco","CA","94117","37.774734","-122.437775","",""
"440","1274","MORNING DUE","3698 17TH ST ","San Francisco","CA","94104","37.762939","-122.428473","+14155627156",""
"441","1276","IRVING STREET CAFE","716 IRVING ST ","San Francisco","CA","94122","37.764108","-122.465531","+14155661366",""
"442","1280","AMASIA HIDE'S SUSHI BAR","149 NOE ST ","San Francisco","CA","94114","37.766774","-122.433306","",""
"443","1281","TRULY MEDITERRANEAN","3109 16TH ST ","San Francisco","CA","94103","","","+14155257482",""
"444","1282","MAXFIELDS","398 DOLORES ST ","San Francisco","CA","94110","37.763168","-122.426345","+14155256859",""
"445","1287","CHILANGO","235 CHURCH ST ","San Francisco","CA","94114","37.76695","-122.428819","+14155257330",""
"446","1289","ORPHAN ANDY'S","3991 A 17TH ST ","San Francisco","CA","94114","37.758132","-122.435614","",""
"447","1292","CASTRO THEATRE","0429 CASTRO ST","San Francisco","CA","94114","37.761952","-122.435029","+14155625288",""
"448","1294","ANCHOR OYSTER BAR","0579 CASTRO ST","San Francisco","CA","94114","37.759613","-122.434817","+14155433990",""
"449","1296","TAQUERIA EL BUEN SABOR","699 VALENCIA ST ","San Francisco","CA","94112","37.761743","-122.421492","+14155588745",""
"450","1298","FAYE'S VIDEO & ESPRESSO","3614 18TH ST ","San Francisco","CA","94110","37.761578","-122.424272","",""
"451","1300","WE BE SUSHI","1071 VALENCIA ST ","San Francisco","CA","94110","37.755824","-122.420986","+14155820607",""
"452","1304","RAIN TREE CAFE","654 IRVING ST ","San Francisco","CA","94122","37.764128","-122.464961","",""
"453","1317","TIKKA MASALA","98 JUDAH ST ","San Francisco","CA","94122","37.762378","-122.462692","",""
"454","1318","GORDO TAQUERIA #6","5450 GEARY BLVD ","San Francisco","CA","94121","37.780517","-122.477804","",""
"455","1322","LA MEDITERRANEE I, INC.","2210 FILLMORE ST ","San Francisco","CA","94115","37.789961","-122.433962","",""
"456","1323","THE BLACK HORSE LONDON DELI","1514 UNION ST ","San Francisco","CA","94123","37.798528","-122.424394","",""
"457","1326","CAFE BONA VITA","1635 DIVISADERO ST ","San Francisco","CA","94115","37.784674","-122.439774","",""
"458","1327","SEA BISCUIT CAFE","3815 NORIEGA ST ","San Francisco","CA","94122","37.752963","-122.50458","",""
"459","1332","CHLOE'S","1399 CHURCH ST","San Francisco","CA","94114","37.748594","-122.427116","+14155644116",""
"460","1337","SAN MIGUEL RESTAURANT #2","3263 MISSION ST ","San Francisco","CA","94110","37.744726","-122.420395","",""
"461","1339","HIGHER GROUNDS","691 CHENERY ST ","San Francisco","CA","94131","37.734483","-122.43368","+14155582933",""
"462","1341","SPIKE'S COFFEES & TEAS","4117 19TH ST ","San Francisco","CA","94114","37.759253","-122.43503","+14155625573",""
"463","1343","HOTEI JAPANESE RESTAURANT","1290 09TH AVE ","San Francisco","CA","94122","37.758941","-122.48591","",""
"464","1344","BEANERY","1307 09TH AVE ","San Francisco","CA","94122","37.758941","-122.48591","",""
"465","1345","CORDON BLEU","1574 CALIFORNIA ST ","San Francisco","CA","94109","37.790683","-122.420264","",""
"466","1346","M'S CAFE","1376 09TH AVE ","San Francisco","CA","94122","37.758941","-122.48591","",""
"467","1347","CREPES ON COLE","100 CARL ST ","San Francisco","CA","94117","37.765778","-122.450184","+14155661800",""
"468","1348","THE GROVE","2250 CHESTNUT ST ","San Francisco","CA","94123","37.800297","-122.440554","",""
"469","1350","KING OF THAI NOODLE HOUSE","639 CLEMENT ST ","San Francisco","CA","94118","37.782833","-122.46615","",""
"470","1351","EXIT THEATRE","156 EDDY ST ","San Francisco","CA","94102","37.784288","-122.410224","",""
"471","1352","LA TORTILLA","0495B CASTRO ST","San Francisco","CA","94114","37.760954","-122.434935","+14155863990",""
"472","1354","SUSHI TIME","2275 MARKET ST ","San Francisco","CA","94114","37.764697","-122.432322","+14155552280",""
"473","1358","MING'S FONG LAM RESTAURANT","2878 24TH ST ","San Francisco","CA","94110","37.752798","-122.409843","",""
"474","1359","STARBUCKS COFFEE","1750 DIVISADERO ST ","San Francisco","CA","94115","37.785907","-122.439957","",""
"475","1362","RESTAURANTE FAMILIAR","4499 MISSION ST ","San Francisco","CA","94112","37.726402","-122.433476","+14155336100",""
"476","1366","CAFE LA TAZA","2475A MISSION  ","San Francisco","CA","94110","37.757436","-122.41888","+14155827715",""
"477","1368","STARBUCKS COFFEE","701 BATTERY ST ","San Francisco","CA","94111","37.797754","-122.400925","",""
"478","1373","DOS PINAS","251 RHODE ISLAND  ","San Francisco","CA","94103","37.766714","-122.402716","",""
"479","1376","THEATRE TOO","539 SUTTER ST ","San Francisco","CA","94102","37.789114","-122.409257","",""
"480","1379","EL PEROL","2590 MISSION  ","San Francisco","CA","94110","37.755706","-122.418805","+14155558582",""
"481","1381","PEBBLE'S CAFE","2852 DIAMOND ST ","San Francisco","CA","94131","37.73382","-122.434093","+14155332270",""
"482","1386","EUNICE'S CAFE","3336 SACRAMENTO ST ","San Francisco","CA","94118","37.788128","-122.447644","+14155443330",""
"483","1389","GASPARE'S PIZZA & REST","5546 GEARY BLVD ","San Francisco","CA","94121","37.78047","-122.478832","",""
"484","1391","JAMBA JUICE","2300 16TH ST ","San Francisco","CA","94103","37.765708","-122.409002","+14155867105",""
"485","1392","SWEET JOANNA'S","101 HOWARD ST ","San Francisco","CA","94103","37.791127","-122.392741","",""
"486","1395","WHAT A GRIND","881 POST ST ","San Francisco","CA","94109","37.787239","-122.416276","+14155929800",""
"487","1396","SAUCE SF","131 GOUGH ST ","San Francisco","CA","94102","37.774644","-122.422554","",""
"488","1398","YUMMA'S MED GRILL","721 IRVING ST","San Francisco","CA","94122","37.764053","-122.465539","",""
"489","1399","LA COPA LOCA","3150 22ND ST ","San Francisco","CA","94110","37.755538","-122.417982","",""
"490","1400","CHEZ SPENCER","82 14TH ST ","San Francisco","CA","94103","37.768598","-122.415072","+14155862191",""
"491","1401","COFFEE CABIN","899 HYDE ST ","San Francisco","CA","94109","37.788943","-122.417005","",""
"492","1407","FRANKIE'S BOHEMIAN","1862 DIVISADERO ST ","San Francisco","CA","94115","37.786887","-122.440156","+14155530085",""
"493","1409","STARBUCKS COFFEE","123 MISSION ST ","San Francisco","CA","94105","37.792137","-122.394573","",""
"494","1413","STARBUCKS COFFEE","5455 GEARY BLVD ","San Francisco","CA","94121","37.780305","-122.477825","",""
"495","1415","ICE HOUSE","1311 NORIEGA  ST","San Francisco","CA","94122","37.754133","-122.47783","",""
"496","1426","SWEET DELIGHT BAKERY","4476A MISSION  ","San Francisco","CA","94112","37.726117","-122.433817","+14155336786",""
"497","1427","MIFUNE DON","22 PEACE PLAZA  275","San Francisco","CA","94115","37.785018","-122.429587","+14155341993",""
"498","1434","HOLEY BAGEL BAKERY","3872 24TH ST ","San Francisco","CA","94114","37.751628","-122.429122","",""
"499","1438","CABLE CAR COFFEE CO","1 HALLIDIE PLAZA  ","San Francisco","CA","94102","37.783658","-122.408568","",""
"500","1442","WATERFRONT BAKERY","2801 LEAVENWORTH ST ","San Francisco","CA","94133","37.807155","-122.419004","",""
"501","1444","STARBUCKS COFFEE","1560 VAN NESS AVE ","San Francisco","CA","94111","37.790086","-122.422167","",""
"502","1452","CAFE V","1525 FOLSOM ST ","San Francisco","CA","94103","37.771538","-122.414372","",""
"503","1454","KISS SEAFOOD","1708 LAGUNA ST ","San Francisco","CA","94115","37.786838","-122.428317","",""
"504","1458","CREPE O CHOCOLAT","75 O'FARRELL ST","San Francisco","CA","94108","37.786633","-122.405972","",""
"505","1460","PIZZA ZONE","555 BEACH ST ","San Francisco","CA","94133","37.806943","-122.418107","",""
"506","1465","BAZAAR CAFE","5927 CALIFORNIA ST ","San Francisco","CA","94121","37.784023","-122.481199","",""
"507","1466","WHOLE FOODS STEEP BREW","1765 CALIFORNIA ST ","San Francisco","CA","94109","37.790193","-122.423437","",""
"508","1467","EPPLER'S BAKERY","758 MARKET ST ","San Francisco","CA","94102","37.786281","-122.405279","",""
"509","1469","HOLIDAY INN EXPRESS-MAIN KITCHEN","550 NORTH POINT ST ","San Francisco","CA","94133","37.806288","-122.416244","",""
"510","1473","PRONTO PIZZA & ESPRESSO","798 EDDY ST ","San Francisco","CA","94109","37.782957","-122.420433","",""
"511","1480","TU KIM'S CAFÉ","609 ELLIS ST","San Francisco","CA","94109","37.784377","-122.416226","",""
"512","1482","A2 CAFE","450 IRWIN ST ","San Francisco","CA","94107","37.767224","-122.399039","",""
"513","1486","STARBUCKS COFFEE","675 PORTOLA DR ","San Francisco","CA","94127","37.744736","-122.452666","+14155689477",""
"514","1487","PEET'S COFFEE & TEA","101 02ND ST 150","San Francisco","CA","94105","37.787834","-122.399522","",""
"515","1490","ZEKE'S DIAMOND BAR","600 03RD ST ","San Francisco","CA","94107","37.779957","-122.394169","",""
"516","1491","LIVERPOOL LIL'S","2942 LYON ST ","San Francisco","CA","94123","37.798147","-122.447236","",""
"517","1493","PEET'S COFFEE & TEA"," FERRY BUILDING  C3","San Francisco","CA","94111","37.795184","-122.393819","",""
"518","1496","FOUR SEASONS HOTEL- EMPLOYEE  CAFETERIA","757 MARKET ST BASE.","San Francisco","CA","94103","37.786476","-122.404852","",""
"519","1502","WOLFE'S LUNCH","1220 16TH ST ","San Francisco","CA","94107","37.766377","-122.398792","",""
"520","1503","NOAH'S NEW YORK BAGELS #3199","5 EMBARCADERO CENTER  ","San Francisco","CA","94111","37.794168","-122.396457","",""
"521","1505","STARBUCKS COFFEE","359 GRANT AVE","San Francisco","CA","94108","37.790376","-122.405544","",""
"522","1508","NONNA ROSE RESTAURANT","FOOT OF TAYLOR ST #7","San Francisco","CA","94133","37.795202","-122.413169","",""
"523","1509","CLUB WAZIEMA","543 DIVISADERO ST ","San Francisco","CA","94117","37.774674","-122.437764","",""
"524","1511","MAMA' ART CAFÉ","4754 MISSION STREET","San Francisco","CA","94112","37.721949","-122.436936","",""
"525","1515","AT&T - COGNAC BAR/ KITCHEN ROOM3232 [145080]","24 WILLIE MAYS PLAZA 3.28.01  ","San Francisco","CA","94107","37.778382","-122.391151","+14155971500",""
"526","1516","AT&T - FIELD CLUB KITCHEN [145082]","24 WILLIE MAYS PLAZA 1.11.04  ","San Francisco","CA","94107","37.778382","-122.391151","+14155971500",""
"527","1517","AT&T -IN-SEAT SERVICE KITCHEN/PRESS DINING [145081]","24 WILLIE MAYS PLAZA 3.12.05  ","San Francisco","CA","94107","37.778382","-122.391151","+14155971500",""
"528","1518","TURTLE TOWER","631 LARKIN ST ","San Francisco","CA","94109","37.783854","-122.417674","",""
"529","1520","STARBUCKS COFFEE","199 FREMONT ST ","San Francisco","CA","94103","37.789314","-122.395192","",""
"530","1526","CHOUQUET'S","2500 WASHINGTON ST ","San Francisco","CA","94115","37.791607","-122.434563","",""
"531","1527","CITY'S CHOICE","301 05TH ST ","San Francisco","CA","94107","37.780263","-122.403323","+14155891888",""
"532","1529","STARBUCKS COFFEE","490 BRANNAN ST ","San Francisco","CA","94107","37.778694","-122.396139","+14155240256",""
"533","1532","NEIMAN MARCUS ON THE SQUARE","150 STOCKTON ST, GROUND FLOOR","San Francisco","CA","94108","37.791586","-122.408452","",""
"534","1534","CAFÉ NIEBAUM COPPOLA","916 KEARNY ST ","San Francisco","CA","94133","37.796517","-122.405167","",""
"535","1537","RESTAURANT DEPOT","2045 EVANS ST ","San Francisco","CA","94124","37.747678","-122.396393","",""
"536","1542","I LUV TERIYAKI AND SUSHI","260 POTRERO AVE ","San Francisco","CA","94103","37.766293","-122.407671","+14155432005",""
"537","1544","OMNI S.F. HOTEL - FOOD & BEVERAGE STOREROOM","500 CALIFORNIA ST, BASEMENT","San Francisco","CA","94104","37.792888","-122.403135","",""
"538","1549","CAFÉ BELLINI","235 POWELL ST ","San Francisco","CA","94102","37.786974","-122.408174","",""
"539","1554","KADOK'S","4794 MISSION ST ","San Francisco","CA","94112","37.721291","-122.437475","+14155334685",""
"540","1555","FINO","1 COSMO PL ","San Francisco","CA","94109","37.788094","-122.41176","",""
"541","1561","HANG AH TEA ROOM","1 PAGODA PL ","San Francisco","CA","94108","37.793386","-122.407325","",""
"542","1564","CORNELL HOTEL - JEANNE D'ARC","715 BUSH ST ","San Francisco","CA","94108","37.790103","-122.409117","",""
"543","1565","UNCLE VITO'S PIZZA","700 BUSH ST ","San Francisco","CA","94108","37.790219","-122.408849","",""
"544","1566","ASIA CHINESE FOOD #2","350 BAY ST ","San Francisco","CA","94133","37.805758","-122.412804","",""
"545","1567","TANPOPO","1740 BUCHANAN ST ","San Francisco","CA","94115","37.785961","-122.429776","+14155347132",""
"546","1568","901 COLUMBUS","901 COLUMBUS AVE ","San Francisco","CA","94133","37.803056","-122.414186","",""
"547","1571","SF BAY CLUB - COURT CAFÉ","150 GREENWICH ST ","San Francisco","CA","94111","37.803208","-122.402534","",""
"548","1579","NICK'S LIGHTHOUSE"," FOOT OF TAYLOR ST 5","San Francisco","CA","94133","37.802479","-122.411234","",""
"549","1582","CAFFE BIANCO","39 SUTTER ST ","San Francisco","CA","94104","37.790102","-122.401158","",""
"550","1583","SABELLA AND LATORRE","FOOT OF TAYLOR #3","San Francisco","CA","94133","37.802479","-122.411234","",""
"551","1584","ESPERPENTO RESTAURANT","3295 22ND ST ","San Francisco","CA","94110","37.755303","-122.420649","",""
"552","1585","KENTUCKY FRIED CHICKEN","2101 LOMBARD ST ","San Francisco","CA","94123","37.799793","-122.436307","+14155931433",""
"553","1588","MACARONI EXPRESS","124 COLUMBUS AVE ","San Francisco","CA","94133","37.796574","-122.404702","",""
"554","1594","YOUNG'S RESTAURANT","601 KEARNY ST","San Francisco","CA","94108","37.793702","-122.404653","",""
"555","1595","ZAZIE","941 COLE ST ","San Francisco","CA","94117","37.765343","-122.449914","+14155565332",""
"556","1596","BURGERMEISTER","86 CARL ST ","San Francisco","CA","94117","37.765848","-122.449664","+14155564433",""
"557","1597","EL AMIGO AND EMMY'S SPAGHETTI'S SHACK","3355 MISSION ST ","San Francisco","CA","94110","37.743053","-122.421524","+14155200682",""
"558","1598","CAFE BEAN","800 SUTTER ST ","San Francisco","CA","94109","37.788587","-122.413795","",""
"559","1601","PASTA POMODORO","4000 24TH ST ","San Francisco","CA","94114","37.751448","-122.432122","",""
"560","1604","TAO YIN RESTAURANT","3515 20TH ST ","San Francisco","CA","94110","37.758573","-122.419559","+14155284920",""
"561","1607","LE ZINC","4063 24TH ST ","San Francisco","CA","94114","37.751323","-122.433249","",""
"562","1608","CLADDAGH COFFEE","951 GENEVA AVE ","San Francisco","CA","94112","37.715997","-122.440048","",""
"563","1609","TUNG SING RESTAURANT","4015 24TH ST ","San Francisco","CA","94114","37.751373","-122.432319","+14155648582",""
"564","1613","BRICK HOUSE CAFE","426 BRANNAN ST ","San Francisco","CA","94107","37.779534","-122.395099","",""
"565","1614","STARBUCKS COFFEE","455 MARKET ST ","San Francisco","CA","94105","37.791227","-122.398872","",""
"566","1615","STARBUCKS COFFEE","27 DRUMM ST ","San Francisco","CA","94111","37.794184","-122.396524","",""
"567","1616","LAS ESTRELLAS STELLINE","330-332 GOUGH ST ","San Francisco","CA","94102","37.77639","-122.422802","",""
"568","1617","CLEMENT BBQ RESTAURANT","617 CLEMENT ST ","San Francisco","CA","94118","37.782843","-122.4659","",""
"569","1619","BENDERS BAR & GRILL","800-806 SOUTH VAN NESS AVE ","San Francisco","CA","94110","37.76031","-122.417123","+14155558050",""
"570","1623","BISTRO BURGER","333 BUSH ST ","San Francisco","CA","94104","37.790844","-122.403168","",""
"571","1624","GALLARDO'S","1807 FOLSOM ST ","San Francisco","CA","94103","37.768363","-122.415556","+14155860610",""
"572","1626","LUPA TRATTORIA","4109 24TH ST ","San Francisco","CA","94114","37.751243","-122.434529","+14155644664",""
"573","1631","CASA MEXICANA RESTAURANT","3917 24TH ST ","San Francisco","CA","94114","37.751513","-122.430179","",""
"574","1632","SWEET CHINITO","3100 MISSION ST ","San Francisco","CA","94110","37.748164","-122.418241","",""
"575","1633","EAGLE DONUTS","3303 MISSION ST ","San Francisco","CA","94110","37.744183","-122.420815","+14155209292",""
"576","1635","KEZAR PUB","770 STANYAN ST ","San Francisco","CA","94117","37.767828","-122.453227","+14155389292",""
"577","1636","AXUM","698 HAIGHT ST ","San Francisco","CA","94117","37.771738","-122.433583","+14155257912",""
"578","1641","MARTHA & BROS. COFFEE CO","1551 CHURCH ST","San Francisco","CA","94131","37.745974","-122.426856","+14155641166",""
"579","1643","SUSHI GROOVE SOUTH","1516 FOLSOM ST ","San Francisco","CA","94107","37.771644","-122.414339","",""
"580","1649","COURTYARD BY MARRIOTT-RESTAURANT","299 02ND ST ","San Francisco","CA","94105","37.785614","-122.396693","",""
"581","1652","STARBUCKS COFFEE","201 03RD ST ","San Francisco","CA","94105","37.785037","-122.400432","",""
"582","1657","PIZZA EXPRESS RESTAURANT","919 CORTLAND AVE ","San Francisco","CA","94110","37.738968","-122.413653","",""
"583","1658","TOP'S CAFETERIA","2460 SAN BRUNO AVE ","San Francisco","CA","94134","37.730917","-122.40502","",""
"584","1664","PANDA EXPRESS","865 MARKET ST C24","San Francisco","CA","94103","37.784317","-122.407563","+14155249775",""
"585","1667","CONNECTICUT YANKEE","100 CONNECTICUT ST ","San Francisco","CA","94107","37.76503","-122.397815","",""
"586","1668","SILVER CREST DONUT SHOP","340 BAYSHORE BLVD ","San Francisco","CA","94124","37.742456","-122.405766","+14155820753",""
"587","1671","JUST FOR YOU CAFÉ INC.","732 22ND ST ","San Francisco","CA","94107","37.757948","-122.388862","",""
"588","1672","WORKING GIRLS' CAFE III","100 SPEAR ST 140","San Francisco","CA","94105","37.792308","-122.393809","",""
"589","1673","RUBIN'S","101 SPEAR ST ","San Francisco","CA","94105","37.792577","-122.393992","+14155971545",""
"590","1674"," NORDSTROM CAFÉ BISTRO","865 MARKET ST ","San Francisco","CA","94103","37.784317","-122.407563","",""
"591","1677","PRIMO PATIO CAFE","214 TOWNSEND ST ","San Francisco","CA","94107","37.778593","-122.393149","+14155951129",""
"592","1684","KAY CHEUNG RESTAURANT","615 JACKSON ST ","San Francisco","CA","94133","37.796134","-122.405566","",""
"593","1685","NEW LUN TING CAFE, INC","670 JACKSON ST ","San Francisco","CA","94133","37.796098","-122.406275","",""
"594","1687","SAI'S VIETNAMESE RESTAURANT","505 WASHINGTON ST ","San Francisco","CA","94111","37.795659","-122.40172","",""
"595","1688","SAM WO RESTAURANT","813 WASHINGTON ST ","San Francisco","CA","94108","37.795103","-122.406717","",""
"596","1691","MARK HOPKINS HOTEL - EMPLOYEES CAFETERIA","999 CALIFORNIA ST,  BASEMENT","San Francisco","CA","94108","37.791873","-122.410307","",""
"597","1692","PLOUF","40 BELDEN PL ","San Francisco","CA","94104","37.791318","-122.403757","",""
"598","1699","TWI LIGHT CAFE","2600 MCALLISTER ST ","San Francisco","CA","94118","37.775698","-122.455034","+14155376115",""
"599","1700","RAINTREE CAFÉ","118 WEST PORTAL AVE ","San Francisco","CA","94127","37.739413","-122.46744","+14155249000",""
"600","1702","EL TOREADOR REST.","050 WEST PORTAL AVE ","San Francisco","CA","94127","37.74033","-122.466412","",""
"601","1703","LANNA RESTAURANT","1245 NORIEGA ST ","San Francisco","CA","94122","37.754153","-122.477279","",""
"602","1708","LE SOLEIL AUTHENTIC VIETNAMESE","133 CLEMENT ST ","San Francisco","CA","94118","37.783083","-122.460739","",""
"603","1710","EMPORIO RULLI IL CAFFE AT UNION SQUARE","225 STOCKTON ST","San Francisco","CA","94108","37.787936","-122.406712","",""
"604","1712","SEA BREEZE CAFE","3940 JUDAH ST ","San Francisco","CA","94122","37.760508","-122.504572","",""
"605","1718","JOE'S EXCELLENT CHINESE CUISINE","1919 OCEAN AVE ","San Francisco","CA","94127","37.725374","-122.462693","+14155581919",""
"606","1724","CAFE MUMS","1800 SUTTER ST ","San Francisco","CA","94115","37.786498","-122.430283","+14155936986",""
"607","1726","KFC/TACO BELL","4285 MISSION ST ","San Francisco","CA","94112","37.728979","-122.431008","",""
"608","1727","SUN RISE RESTAURANT","3126 24TH ST ","San Francisco","CA","94110","37.752508","-122.414681","",""
"609","1733","NEW VILLAGE CAFE","1426 POLK ST ","San Francisco","CA","94109","37.789909","-122.42048","",""
"610","1734","SAI JAI THAI","771 O'FARRELL ST ","San Francisco","CA","94109","37.785182","-122.417409","+14155675774",""
"611","1741","OSHA THAI NOODLE CAFE","696 GEARY ST ","San Francisco","CA","94102","37.786598","-122.414583","",""
"612","1742","MCALLISTER GROCERY & DELI","136 MCALLISTER ST","San Francisco","CA","94102","37.780916","-122.414312","",""
"613","1744","QUICKLY","1733 POLK ST ","San Francisco","CA","94109","37.792677","-122.421176","",""
"614","1747","NARA SUSHI","1515 POLK ST ","San Francisco","CA","94109","37.790716","-122.420779","",""
"615","1750","LAFAYETTE COFFEE SHOP","250 HYDE ST","San Francisco","CA","94102","37.783059","-122.415723","",""
"616","1753","RED BALLOON","2763 MISSION ST","San Francisco","CA","94110","37.752923","-122.418505","",""
"617","1754","FISHERMAN'S PIZZERIA INC [#50]","2800 LEAVENWORTH ST","San Francisco","CA","94133","37.807167","-122.418936","",""
"618","1757","DAR BAR PAKISTANI/INDIAN CUSINE","1412 POLK ST ","San Francisco","CA","94109","37.789784","-122.420455","",""
"619","1761","SUBWAY SANDWICHES","940 MARKET","San Francisco","CA","94102","37.783574","-122.408668","+14155377499",""
"620","1762","SOLSTICE","2801 CALIFORNIA ST ","San Francisco","CA","94115","37.788014","-122.440756","",""
"621","1764","FLORIO","1915 FILLMORE ST ","San Francisco","CA","94115","37.787553","-122.433574","+14155774300",""
"622","1765","MCDONALDS","5411 03RD ST ","San Francisco","CA","94124","37.728048","-122.39298","+14155820956",""
"623","1768","SUBWAY SANDWICHES","1199 SUTTER ST ","San Francisco","CA","94109","37.787783","-122.419737","",""
"624","1774","THE CREPE HOUSE","1755 POLK ST ","San Francisco","CA","94109","37.79286","-122.421212","",""
"625","1775","SAPPORO-YA","1581 WEBSTER ST ","San Francisco","CA","94115","37.785227","-122.431472","+14155567400",""
"626","1777","PETE'S DELI & CAFÉ","1661 DIVISADERO ST","San Francisco","CA","94115","37.785124","-122.439874","",""
"627","1778","PIZZA INFERNO RESTAURANT & BAR","1800 SUTTER ST ","San Francisco","CA","94115","37.786498","-122.430283","+14155771800",""
"628","1784","CAPANNINA","1809 UNION ST ","San Francisco","CA","94123","37.797855","-122.429064","",""
"629","1785","EL AZTECA","5298 03RD ST ","San Francisco","CA","94124","37.729311","-122.392785","",""
"630","1788","EXECUTIVE CAFE","150 EXECUTIVE PARK BLVD 2000","San Francisco","CA","94134","37.711323","-122.393371","+14155532612",""
"631","1791","GARDEN HOUSE CAFE","3117 CLEMENT ST ","San Francisco","CA","94121","37.781597","-122.492544","",""
"632","1792","ATLAS CAFE","3049 20TH ST ","San Francisco","CA","94110","37.759073","-122.411418","",""
"633","1796","PHILIPPINE DELICACIES","5609 MISSION ST ","San Francisco","CA","94112","37.711286","-122.446607","",""
"634","1797","TIO CHILOS GRILL","2872 24TH ST ","San Francisco","CA","94110","37.752807","-122.409752","",""
"635","1798","CHEVRON #1512","1000 HARRISON ST ","San Francisco","CA","94103","37.777113","-122.404379","",""
"636","1800","BRAVO PIZZA","5145 MISSION ST ","San Francisco","CA","94112","37.716583","-122.440834","",""
"637","1810","TAL-Y-TARA TEA & POLO SHOPPE","6439 CALIFORNIA ST ","San Francisco","CA","94121","37.783773","-122.486779","",""
"638","1811","MOONLIGHT CAFE","634 CORTLAND AVE ","San Francisco","CA","94110","37.738923","-122.415293","",""
"639","1813","CESARIO","601 SUTTER ST ","San Francisco","CA","94102","37.788943","-122.410517","",""
"640","1814","MARRIOTT - 4TH ST BAR & DELI","55 04TH ST ","San Francisco","CA","94103","37.784964","-122.404752","",""
"641","1815","SF MARRIOTT BANQUET KITCHEN","55 04TH ST ","San Francisco","CA","94103","37.784964","-122.404752","",""
"642","1822","EL TORO BAR & GRILL","2470 SAN BRUNO AVE ","San Francisco","CA","94134","37.73067","-122.404952","",""
"643","1823","DAVE'S","29 03RD ST ","San Francisco","CA","94103","37.78713","-122.402994","",""
"644","1824","GRAIN D'OR","665 MARKET ST ","San Francisco","CA","94105","37.788157","-122.402706","",""
"645","1825","TOWER CAFETERIA","100 01ST ST 8/F","San Francisco","CA","94105","37.788613","-122.393894","",""
"646","1829","NOB HILL CAFE","1152 TAYLOR ST ","San Francisco","CA","94108","37.793238","-122.412746","",""
"647","1830","SUSHI ON NORTH BEACH","745 COLUMBUS AVE ","San Francisco","CA","94133","37.801616","-122.412137","",""
"648","1831","B44","44 BELDEN PL ","San Francisco","CA","94104","37.791278","-122.403748","",""
"649","1832","MURPHY'S","217 KEARNY ST","San Francisco","CA","94108","37.790125","-122.403924","",""
"650","1833","ROGUE ALES PUBLIC HOUSE","673 UNION ST ","San Francisco","CA","94133","37.800254","-122.410447","",""
"651","1836","THE OLD SHIP SALOON","298 PACIFIC AVE ","San Francisco","CA","94111","37.797728","-122.400693","",""
"652","1837","CAFE BASTILLE","22 BELDEN PL ","San Francisco","CA","94104","37.791139","-122.403716","",""
"653","1838","JADE CAFE","18 GEARY ST ","San Francisco","CA","94108","37.787927","-122.403864","",""
"654","1843","MA'S DIM SUM & CAFE","1315 POWELL ST ","San Francisco","CA","94133","37.796683","-122.410134","",""
"655","1844","BASQUE HOTEL","15 ROMOLO PL ","San Francisco","CA","94133","37.798244","-122.406324","",""
"656","1850","BATTERY STREET COFFEE ROASTERY","950 BATTERY ST ","San Francisco","CA","94111","37.800178","-122.401317","",""
"657","1852","PAT'S CAFE","2330 TAYLOR ST ","San Francisco","CA","94133","37.803947","-122.414927","",""
"658","1854","CAFE VENUE","218 MONTGOMERY ST ","San Francisco","CA","94104","37.791148","-122.402262","",""
"659","1856","DILLER'S DELICATESSEN","348 PINE ST ","San Francisco","CA","94104","37.792059","-122.40178","",""
"660","1865","LATTE EXPRESS #3","448 BEACH ST ","San Francisco","CA","94133","37.807244","-122.416434","+14155583046",""
"661","1866","STARBUCKS COFFEE","343 SANSOME ST ","San Francisco","CA","94104","37.793693","-122.401194","",""
"662","1867","ESCAPE FROM NEW YORK PIZZA","333 BUSH ST #103","San Francisco","CA","94104","37.790844","-122.403168","",""
"663","1869","TANTE MARIE COOKING SCHOOL","271 FRANCISCO ST ","San Francisco","CA","94133","37.805143","-122.409647","",""
"664","1870","CAFE TIRAMISU","28 BELDEN PL ","San Francisco","CA","94104","37.791198","-122.403737","",""
"665","1873","BISTRO 69","69 MAIDEN LN ","San Francisco","CA","94108","37.788243","-122.404547","",""
"666","1880","PASQUALES","2640 SLOAT BLVD ","San Francisco","CA","94117","37.735568","-122.5027","",""
"667","1882","SORABOL-STONESTOWN GALLERIA","3251 20TH AVE ","San Francisco","CA","94132","37.728497","-122.475639","+14155755959",""
"668","1884","HOT DOG ON A STICK","3251 20TH AVE 2505","San Francisco","CA","94132","37.728497","-122.475639","+14155669609",""
"669","1890","NAGANO RESTAURANT","3727 GEARY BLVD ","San Francisco","CA","94118","37.781153","-122.459439","",""
"670","1892","RESTAURANT TANUKI","4419 CALIFORNIA ST ","San Francisco","CA","94118","37.784773","-122.464878","",""
"671","1894","MAI'S VIETNAMESE RESTAURANT","316 CLEMENT ST ","San Francisco","CA","94118","37.783048","-122.462641","",""
"672","1896","SIMPLE PLEASURES CAFE","3434 BALBOA ST ","San Francisco","CA","94121","37.775818","-122.495802","",""
"673","1898","BILL'S PLACE","2315 CLEMENT ST ","San Francisco","CA","94121","37.782023","-122.484159","",""
"674","1899","HAIGS DELICACIES"," CLEMENT ST ","San Francisco","CA","94118","37.782392","-122.476297","",""
"675","1900","CLEMENT STREET BAR & GRILL","708 CLEMENT ST ","San Francisco","CA","94118","37.782858","-122.466812","",""
"676","1902","BE MY GUEST THAI BISTRO","951 CLEMENT ST ","San Francisco","CA","94118","37.778382","-122.462787","",""
"677","1903","GEARY STREET BELLA PIZZA","4124 GEARY BLVD ","San Francisco","CA","94118","37.781148","-122.463672","",""
"678","1905","MURASAKI","211 CLEMENT ST ","San Francisco","CA","94118","37.783053","-122.46149","",""
"679","1906","ALEX BAKERY","431 CLEMENT ST ","San Francisco","CA","94118","37.782944","-122.46395","",""
"680","1909","OYAJI RESTAURANT","3123 CLEMENT ST ","San Francisco","CA","94121","37.781613","-122.492859","",""
"681","1912","CAFE BAKERY","1345 NORIEGA ST ","San Francisco","CA","94122","37.754114","-122.47833","",""
"682","1915","VILLAGE PIZZA","1 CLEMENT ST ","San Francisco","CA","94118","37.783153","-122.459309","",""
"683","1916","RESTAURANT MINAMI","1900 CLEMENT ST ","San Francisco","CA","94121","37.782294","-122.479553","",""
"684","1921","TARAVAL OKAZU YA","1735 TARAVAL ST ","San Francisco","CA","94116","37.742603","-122.484646","",""
"685","1922","ALLSTAR DONUTS","901 CLEMENT ST ","San Francisco","CA","94118","37.782694","-122.468969","",""
"686","1924","KATHY'S CHINESE CUISINE","408 DEWEY BLVD ","San Francisco","CA","94116","37.747174","-122.459368","",""
"687","1926","LINCOLN PARK BAR AND GRILL","300 34TH AVE ","San Francisco","CA","94121","37.782971","-122.496324","+14155222014",""
"688","1927","STARBUCKS COFFEE","1799 FULTON ST ","San Francisco","CA","94117","37.775793","-122.446227","",""
"689","1928","BLISSFUL BITES","397 ARGUELLO BLVD ","San Francisco","CA","94118","37.783242","-122.459091","",""
"690","1930","SUNRISE DELI","2115 IRVING ST ","San Francisco","CA","94122","37.763383","-122.48075","",""
"691","1931","YUMMY YUMMY VIETNAMESE RESTAURANT","1015 IRVING ST ","San Francisco","CA","94122","37.763913","-122.468809","+14155564722",""
"692","1932","FIVE HAPPINESS","4142 GEARY BLVD ","San Francisco","CA","94118","37.781138","-122.463931","",""
"693","1935","PIZZA & PASTA","1650 HOLLOWAY AVE ","San Francisco","CA","94132","37.720894","-122.478029","+14155331097",""
"694","1936","JITRA THAI CUISINE","2545 OCEAN AVE ","San Francisco","CA","94132","37.731515","-122.472953","+14155587251",""
"695","1938","MILANO PIZZERIA","1330 09TH AVE ","San Francisco","CA","94122","37.758941","-122.48591","",""
"696","1939","STARBUCKS COFFEE","74 NEW MONTGOMERY ST ","San Francisco","CA","94105","37.787838","-122.400998","",""
"697","1942","S.F. PIZZA","1270 MISSION ST.","San Francisco","CA","94103","37.776604","-122.414319","",""
"698","1947","SHIMO RESTAURANT","2339 CLEMENT ST ","San Francisco","CA","94121","37.782013","-122.484499","",""
"699","1948","MALAYSIAN RESTAURANT","836 CLEMENT ST ","San Francisco","CA","94118","37.782778","-122.468341","",""
"700","1949","PLUTO'S","627 IRVING ST ","San Francisco","CA","94122","37.764083","-122.46471","+14155758867",""
"701","1950","BULLSHEAD RESTAURANT","840 ULLOA ST ","San Francisco","CA","94127","37.740785","-122.465507","+14155664350",""
"702","1952","HAN BAT KOREAN RESTAURANT","2001 TARAVAL ST ","San Francisco","CA","94116","37.742477","-122.487507","",""
"703","1953","JOHNS OCEAN BEACH CAFE","2898 SLOAT BLVD ","San Francisco","CA","94116","37.735588","-122.504741","",""
"704","1954","T C PASTRY","2222 IRVING ST ","San Francisco","CA","94122","37.763388","-122.481892","",""
"705","1957","KOO","408 IRVING ST ","San Francisco","CA","94122","37.764248","-122.462321","",""
"706","1958","JIMISAN'S","1380 09TH AVE ","San Francisco","CA","94122","37.758941","-122.48591","+14155568989",""
"707","1959","EBISU RESTAURANT","1283 09TH AVE ","San Francisco","CA","94122","37.758941","-122.48591","",""
"708","1960","PARADISE PIZZA","393 WEST PORTAL AVE ","San Francisco","CA","94127","37.73671","-122.470437","+14155751155",""
"709","1963","SPIAZZO","033 WEST PORTAL AVE ","San Francisco","CA","94127","37.740456","-122.466108","+14155669511",""
"710","1964","Q","225 CLEMENT ST ","San Francisco","CA","94118","37.783043","-122.46168","",""
"711","1966","CHIN","4406 CALIFORNIA ST ","San Francisco","CA","94118","37.784988","-122.464834","",""
"712","1968","AL-MASRI EGYPTIAN RESTAURANT","4031 BALBOA ST ","San Francisco","CA","94121","37.775454","-122.502148","",""
"713","1970","MICADO  RESTAURANT","2126 IRVING ST ","San Francisco","CA","94122","37.763468","-122.480646","",""
"714","1972","KENTUCKY FRIED CHICKEN","4150 GEARY BLVD ","San Francisco","CA","94109","37.781128","-122.464072","",""
"715","1973","MY FAVORITE CAFE","2110 CLEMENT ST ","San Francisco","CA","94121","37.782169","-122.481942","",""
"716","1977","BURMA SUPERSTAR RESTAURANT","309 CLEMENT ST ","San Francisco","CA","94118","37.783004","-122.462539","",""
"717","1978","GOLDEN CHARIOT BAKERY & REST","3308 BALBOA ST ","San Francisco","CA","94121","37.775878","-122.494382","",""
"718","1983","FOUR STAR THEATRE - SNACK BAR","2200 CLEMENT ST ","San Francisco","CA","94118","37.782128","-122.482911","+14155956449",""
"719","1989","PRESIDIO GOLF CLUB","8 PRESIDIO AVE ","San Francisco","CA","94118","37.788807","-122.460845","+14155751322",""
"720","1991","SRI THAI CUISINE","4621 LINCOLN WAY ","San Francisco","CA","94122","37.764073","-122.507779","",""
"721","1992","GENEVA STEAK HOUSE","5130 MISSION ST ","San Francisco","CA","94112","37.716242","-122.441183","+14155586685",""
"722","1994","EL POLLO SUPREMO","5210 MISSION ST ","San Francisco","CA","94112","37.715469","-122.441846","+14155335750",""
"723","1999","K.T. NOODLE CUISINE","1507 SLOAT BLVD ","San Francisco","CA","94132","37.733948","-122.489717","",""
"724","2001","J AND J BAKERY","1398  09TH AVE ","San Francisco","CA","94122","37.758941","-122.48591","",""
"725","2002","PANDA EXPRESS","3251 20TH AVE 250H","San Francisco","CA","94132","37.728497","-122.475639","+14155669770",""
"726","2003","SBARRO THE ITALIAN EATERY","3251 20TH AVE  250D","San Francisco","CA","94132","37.728497","-122.475639","+14155241746",""
"727","2004","GREEN GARDEN RESTAURANT","434 BROADWAY ST ","San Francisco","CA","94133","37.798178","-122.404484","",""
"728","2007","BOCADILLOS","710 MONTGOMERY ST ","San Francisco","CA","94111","37.795893","-122.403277","",""
"729","2008","HOOK A COOK","PIER 39  BUILDING B  SPACE 1-3","San Francisco","CA","94133","37.786766","-122.461545","",""
"730","2012","CHEESE STEAK SHOP, THE","1716 DIVISADERO ST ","San Francisco","CA","94115","37.785537","-122.439887","+14155343712",""
"731","2016","EXTREME TAKE & BAKE PIZZA","1730 FILLMORE ST ","San Francisco","CA","94115","37.785657","-122.433147","",""
"732","2017","THE GROVE FILLMORE","2016 FILLMORE ST ","San Francisco","CA","94115","37.788147","-122.433637","+14155471419",""
"733","2020","MONROE RESIDENCE CLUB","1870 SACRAMENTO ST ","San Francisco","CA","94109","37.791178","-122.423703","+14155476200",""
"734","2027","SANPPO RESTAURANT","1702 POST ST ","San Francisco","CA","94115","37.785567","-122.430074","+14155343486",""
"735","2029","MURATA'S CAFE HANA","1737 POST ST ","San Francisco","CA","94115","37.785457","-122.430317","+14155569133",""
"736","2030","SAHA","1075 SUTTER ST ","San Francisco","CA","94109","37.788003","-122.417977","",""
"737","2031","KENMORE RESIDENCE CLUB","1570 SUTTER ST ","San Francisco","CA","94109","37.787017","-122.426234","+14155775815",""
"738","2032","QUEEN ANNE HOTEL","1590 SUTTER ST ","San Francisco","CA","94109","37.786988","-122.426464","+14155442828",""
"739","2035","ISUMIYA","1581 WEBSTER ST ","San Francisco","CA","94115","37.785227","-122.431472","+14155446867",""
"740","2039","VIA VENETO","2244 FILLMORE ST ","San Francisco","CA","94115","37.790437","-122.434097","",""
"741","2040","KOJI OSAKA YA","1737 POST ST","San Francisco","CA","94115","37.785457","-122.430317","",""
"742","2042","SUBWAY SANDWICHES","2675 GEARY BLVD 2","San Francisco","CA","94118","37.782344","-122.445907","",""
"743","2043","AH LIN RESTAURANT","1634 BUSH ST ","San Francisco","CA","94109","37.788228","-122.424184","",""
"744","2044","JOANIE'S HAPPY DAYS DINER","1329 COLUMBUS AVE ","San Francisco","CA","94133","37.806546","-122.419277","",""
"745","2047","CHESTNUT DINER","1312 CHESTNUT ST ","San Francisco","CA","94123","37.802247","-122.425093","",""
"746","2048","ESPRESSO ROMA CAFE","3130 FILLMORE ST ","San Francisco","CA","94115","37.798557","-122.435767","",""
"747","2050","HYDE STREET SEAFOOD HOUSE & RAW BAR, INC","1509 HYDE ST ","San Francisco","CA","94109","37.794753","-122.418184","",""
"748","2051","COCOTTE","1521 HYDE ST ","San Francisco","CA","94109","37.794753","-122.418184","",""
"749","2053","ZA","1919 HYDE ST ","San Francisco","CA","94109","37.798553","-122.418964","",""
"750","2054","ZARZUELA","2000 HYDE ST ","San Francisco","CA","94109","37.799368","-122.419047","",""
"751","2055","SUN KWONG RESTAURANT","1400 JACKSON ST ","San Francisco","CA","94109","37.794558","-122.418334","",""
"752","2057","AMARENA","2162 LARKIN ST ","San Francisco","CA","94109","37.797713","-122.420353","",""
"753","2060","CAFE LOMBARD","1424 LOMBARD ST ","San Francisco","CA","94123","37.801268","-122.425154","",""
"754","2061","ATAMI SUSHI BAR & GRILL","1662 LOMBARD ST ","San Francisco","CA","94123","37.800788","-122.428894","+14155611958",""
"755","2063","ZUSHI-PUZZLE","1910 LOMBARD ST ","San Francisco","CA","94123","37.800248","-122.433053","",""
"756","2066","THAI SPICE RESTAURANT","1730 POLK ST ","San Francisco","CA","94109","37.792677","-122.421036","",""
"757","2070","STREET RESTAURANT","2141 POLK ST ","San Francisco","CA","94109","37.796327","-122.421911","",""
"758","2071","HOUSE OF SUSHI","2157 POLK ST ","San Francisco","CA","94109","37.796683","-122.421954","",""
"759","2072","STARBUCKS COFFEE","2163 POLK ST","San Francisco","CA","94109","37.796527","-122.421953","",""
"760","2075","REX CAFE","2323 POLK ST ","San Francisco","CA","94109","37.798263","-122.422264","",""
"761","2076","LEMONGRASS THAI NOODLE","2348 POLK ST ","San Francisco","CA","94109","37.798497","-122.422246","",""
"762","2077","PEET'S COFFEE & TEA","2139C POLK ST ","San Francisco","CA","94109","37.796316","-122.421909","",""
"763","2080","LA CUCINA","2136 UNION ST ","San Francisco","CA","94123","37.797238","-122.434524","",""
"764","2085","KENTUCKY FRIED CHICKEN #249","691 EDDY ST ","San Francisco","CA","94109","37.783053","-122.418988","",""
"765","2086","EASTERN PARK APARTMENTS","711 EDDY ST ","San Francisco","CA","94109","37.783004","-122.419608","",""
"766","2090","TAQUERIA EL CASTILLITO","370 GOLDEN GATE AVE","San Francisco","CA","94102","37.781507","-122.416824","",""
"767","2094","CARL'S JUNIOR","1 HALLIDIE PLAZA  ","San Francisco","CA","94102","37.783658","-122.408568","",""
"768","2095","MANOR HOUSE RESTAURANT","210 JONES ST ","San Francisco","CA","94102","37.783187","-122.412407","",""
"769","2104","OLYMPIC FLAME CAFE","553 GEARY ST ","San Francisco","CA","94102","37.786803","-122.412467","",""
"770","2105","MILLENNIUM","580 GEARY ST ","San Francisco","CA","94102","37.786797","-122.412954","",""
"771","2106","ORIGINAL PERFECT HAMBURGER","601 GEARY ST ","San Francisco","CA","94102","37.786693","-122.413367","",""
"772","2107","KIM THANH RESTAURANT","607 GEARY ST ","San Francisco","CA","94102","37.786683","-122.413274","",""
"773","2109","ANH HONG PHU-NHUAN RESTAURANT","808 GEARY ST ","San Francisco","CA","94109","37.786354","-122.416628","",""
"774","2110","A LA TURCA","869 GEARY ST","San Francisco","CA","94109","37.786143","-122.417617","",""
"775","2115","LITTLE HENRY'S ITALIAN FOOD","955 LARKIN ST ","San Francisco","CA","94109","37.786751","-122.418287","",""
"776","2117","SAKANA","605 POST ST ","San Francisco","CA","94109","37.787798","-122.411772","",""
"777","2118","AR ROI","643 POST ST ","San Francisco","CA","94109","37.787737","-122.412417","",""
"778","2121","PEET'S COFFEE & TEA","2156 CHESTNUT ST ","San Francisco","CA","94123","37.800508","-122.438834","+14155938302",""
"779","2124","RUTH'S CHRIS STEAK HOUSE","1700 CALIFORNIA ST ","San Francisco","CA","94109","37.790298","-122.423034","",""
"780","2127","NOAH'S BAGELS","2075 CHESTNUT ST ","San Francisco","CA","94133","37.800653","-122.437386","",""
"781","2131","DRAGON WELL","2142 CHESTNUT ST ","San Francisco","CA","94123","37.800528","-122.438664","",""
"782","2132","B & M MEI SING RESTAURANT","62 02ND ST ","San Francisco","CA","94105","37.788453","-122.400466","",""
"783","2134","CHIEFTAIN IRISH PUB, THE","198 05TH ST ","San Francisco","CA","94103","37.781567","-122.405059","+14155610916",""
"784","2135","HOWARD STREET COFFEE ROASTERY CAFE","180 HOWARD ST ","San Francisco","CA","94105","37.790863","-122.393159","",""
"785","2136","STARBUCKS COFFEE","100 WEST PORTAL AVE ","San Francisco","CA","94122","37.739514","-122.46733","+14155776646",""
"786","2138","BOUDIN BAKERY","619 MARKET ST ","San Francisco","CA","94105","37.788924","-122.401701","",""
"787","2143","THE BITTER END","441 CLEMENT ST ","San Francisco","CA","94118","37.782933","-122.46408","",""
"788","2144","SHERA.-PAL.HOTEL MAXFIELD'S GRILL","2 NEW MONTGOMERY ST ","San Francisco","CA","94105","37.788286","-122.401543","",""
"789","2145","FRINGALE","570 04TH ST ","San Francisco","CA","94107","37.778657","-122.397009","",""
"790","2148","LE CHARM","315 05TH ST ","San Francisco","CA","94103","37.78006","-122.40301","+14155546128",""
"791","2150","POPEYE'S CHICKEN","2598 MISSION ST ","San Francisco","CA","94110","37.755706","-122.418805","+14155280697",""
"792","2152","HARD KNOX CAFE","2526 03RD ST ","San Francisco","CA","94107","37.757555","-122.388443","",""
"793","2155","DOMINO'S PIZZA","320 BAYSHORE BLVD #B","San Francisco","CA","94124","37.742738","-122.405544","+14155648400",""
"794","2156","GOAT HILL PIZZA","300 CONNECTICUT ST ","San Francisco","CA","94107","37.762367","-122.397515","",""
"795","2162","CAFE COZZOLINO","300 PRECITA AVE ","San Francisco","CA","94110","37.746773","-122.41331","",""
"796","2165","CAFFE SAPORE","790 LOMBARD ST ","San Francisco","CA","94133","37.802687","-122.414304","",""
"797","2168","CAFE FRANCISCO","2161 POWELL ST ","San Francisco","CA","94133","37.804519","-122.411754","",""
"798","2172","MAMAS ON WASHINGTON SQUARE","1701 STOCKTON ST ","San Francisco","CA","94133","37.801554","-122.409434","",""
"799","2173","YERBA BUENA MARKET","201 06TH ST ","San Francisco","CA","94103","37.774722","-122.406761","",""
"800","2175","ACQUERELLO","1722 SACRAMENTO ST ","San Francisco","CA","94109","37.791507","-122.421257","",""
"801","2180","INDIA GARDEN RESTAURANT","1261 FOLSOM ST ","San Francisco","CA","94103","37.774257","-122.410943","",""
"802","2189","PRINCESS BAKERY","4617 MISSION ST ","San Francisco","CA","94112","37.724422","-122.434985","",""
"803","2192","GEORGE'S","2462 SAN BRUNO AVE ","San Francisco","CA","94134","37.730857","-122.405001","",""
"804","2193","NEW CITY BAKERY","2495 SAN BRUNO AVE ","San Francisco","CA","94134","37.730463","-122.40476","",""
"805","2194","BREAKFAST AT TIFFANY'S","2499 SAN BRUNO AVE ","San Francisco","CA","94134","37.730342","-122.404669","",""
"806","2198","MONTE CARLO BAR & GRILL","1705 YOSEMITE ST ","San Francisco","CA","94124","37.727986","-122.393725","",""
"807","2199","PANTA REI","431 COLUMBUS AVE ","San Francisco","CA","94133","37.798918","-122.408291","",""
"808","2200","ORIGINAL U.S. RESTAURANT","515 COLUMBUS AVE ","San Francisco","CA","94133","37.799837","-122.409517","",""
"809","2201","WALI BAKERY AND CAFÉ","1249 STOCKTON ST ","San Francisco","CA","94133","37.797285","-122.408603","",""
"810","2205","YOU'S DIM SUM RESTAURANT","675 BROADWAY ST ","San Francisco","CA","94133","37.797683","-122.408157","",""
"811","2206","LES CROISSANT CAFE","1840 GEARY BLVD ","San Francisco","CA","94115","37.784488","-122.433775","",""
"812","2216","HONG KONG CLAY POT CITY RESTAURANT","960 GRANT AVE ","San Francisco","CA","94108","37.795868","-122.406557","",""
"813","2218","STARBUCKS COFFEE","99 JACKSON ST ","San Francisco","CA","94111","37.79703","-122.398284","",""
"814","2219","CHUNG KING RESTAURANT","606 JACKSON ST ","San Francisco","CA","94133","37.796259","-122.40529","",""
"815","2223","GARDEN BAKERY","765 JACKSON ST ","San Francisco","CA","94133","37.795835","-122.407828","",""
"816","2226","PALIO PANINOTECA","505 MONTGOMERY ST ","San Francisco","CA","94111","37.793841","-122.402947","",""
"817","2228","TOKYO EXPRESS","660 SACRAMENTO ST ","San Francisco","CA","94111","37.793698","-122.403984","",""
"818","2229","WELLS FARGO P.H.","464 CALIFORNIA ST ","San Francisco","CA","94104","37.793008","-122.402213","",""
"819","2233","THE AA BAKERY & CAFE","1068 STOCKTON ST ","San Francisco","CA","94108","37.795564","-122.40809","",""
"820","2234","KAM LOK RESTAURANT","834 WASHINGTON ST ","San Francisco","CA","94108","37.795118","-122.407083","",""
"821","2235","GOLDEN HORSE RESTAURANT","1060 HYDE ST ","San Francisco","CA","94109","37.790787","-122.417327","",""
"822","2240","LE REGENCY","18 CALIFORNIA ST","San Francisco","CA","94108","37.793687","-122.396592","",""
"823","2243","CAFE CLAUDE","7 CLAUDE LN ","San Francisco","CA","94108","37.789857","-122.404302","",""
"824","2244","STARBUCKS COFFEE","295 CALIFORNIA ST ","San Francisco","CA","94111","37.793225","-122.399899","",""
"825","2245","STARBUCKS COFFEE","0264 KEARNY ST","San Francisco","CA","94108","37.790498","-122.403896","",""
"826","2249","RAMZI'S CAFE","0044 MONTGOMERY ST  LL1","San Francisco","CA","94104","37.789552","-122.401999","",""
"827","2252","NIJI JAPANESE GRILL","50 POST ST SPACE #53-54","San Francisco","CA","94104","37.789064","-122.402861","",""
"828","2256","BLUE DANUBE COFFEE HOUSE","306 CLEMENT ST ","San Francisco","CA","94118","37.783058","-122.462502","",""
"829","2257","BISTRO BURGER","343 SANSOME ST ","San Francisco","CA","94104","37.793693","-122.401194","",""
"830","2261","RITZ-CARLTON SF - EMPLOYEE CAFETERIA","600 STOCKTON ST 2ND FLOOR","San Francisco","CA","94108","37.791757","-122.407377","",""
"831","2262","RITZ-CARLTON SF - BANQUET KITCHEN","600 STOCKTON ST 2ND FLOOR","San Francisco","CA","94108","37.791757","-122.407377","",""
"832","2263","TAIWAN RESTAURANT","445 CLEMENT ST ","San Francisco","CA","94118","37.782933","-122.464089","",""
"833","2265","H CAFÉ","3801 17TH ST ","San Francisco","CA","94114","37.762705","-122.43074","",""
"834","2266","ALI BABA'S CAVE RESTAURANT","799 VALENCIA ST ","San Francisco","CA","94110","37.760164","-122.421334","+14155863054",""
"835","2268","TIN FISH AT EAGLE CAFÉ","PIER 39  #201","San Francisco","CA","94133","37.80824","-122.410189","",""
"836","2270","WEI LEE CHINESE FOOD & DONUT","700 CLEMENT ST ","San Francisco","CA","94118","37.782858","-122.466732","",""
"837","2273","COLE VALLEY CAFÉ","701 COLE ST ","San Francisco","CA","94117","37.768474","-122.450553","+14155665282",""
"838","2274","LA MEDITERRANEE","288 NOE ST ","San Francisco","CA","94114","37.764489","-122.433195","",""
"839","2276","CHINO'S TAQUERIA","3416 BALBOA ST ","San Francisco","CA","94121","37.775828","-122.495582","",""
"840","2279","GOLDEN DONUT","5401 GEARY BLVD ","San Francisco","CA","94121","37.780353","-122.477399","",""
"841","2280","SAKANA BUNE RESTAURANT","5701 GEARY BLVD ","San Francisco","CA","94121","37.780204","-122.480599","",""
"842","2282","PACIFIC CAFE","7000 GEARY BLVD ","San Francisco","CA","94121","37.779668","-122.494562","",""
"843","2291","CHEUNG HING CHINESE RESTAURANT","2339 NORIEGA ST ","San Francisco","CA","94122","37.753663","-122.488929","",""
"844","2292","ORIENTAL SEAFOOD RESTAURANT","2520 NORIEGA ST ","San Francisco","CA","94122","37.753638","-122.490712","",""
"845","2293","GOLD MIRROR RESTAURANT","800 TARAVAL","San Francisco","CA","94116","37.743118","-122.474802","",""
"846","2298","MCCARTHY'S PORTALS","179 WEST PORTAL AVE ","San Francisco","CA","94127","37.739008","-122.467821","",""
"847","2299","STARBUCKS COFFEE","1401 VAN NESS AVE ","San Francisco","CA","94109","37.788476","-122.422099","",""
"848","2302","MANOR COFFEE SHOP","321A WEST PORTAL AVE ","San Francisco","CA","94127","37.73762","-122.469396","",""
"849","2305","TIA MARGARITA INC","300 19TH AVE ","San Francisco","CA","94121","37.782124","-122.478425","",""
"850","2307","ASIA EXPRESS","1650 HOLLOWAY AVE ","San Francisco","CA","94132","37.720894","-122.478029","+14155336338",""
"851","2308","GOLDILOCKS","4516 MISSION ST ","San Francisco","CA","94112","37.72556","-122.434196","+14155336963",""
"852","2309","BURGER KING","4780 MISSION ST ","San Francisco","CA","94112","37.72169","-122.437135","+14155465518",""
"853","2312","OCEAN PIZZA RESTAURANT","1443 OCEAN AVE ","San Francisco","CA","94112","37.724166","-122.457735","+14155583045",""
"854","2313","HOT DOG BILLS #2 (DRIVING RANGE)","599 SKYLINE BLVD ","San Francisco","CA","94132","37.708887","-122.497934","+14155404300",""
"855","2315","TAQUERIA CAN-CUN","2288 MISSION ST ","San Francisco","CA","94110","37.760487","-122.419285","+14155259560",""
"856","2316","WHIZ BURGERS","700 SOUTH VAN NESS AVE ","San Francisco","CA","94110","37.761748","-122.417215","",""
"857","2317","BURGER JOINT","807 VALENCIA ST ","San Francisco","CA","94110","37.759933","-122.421356","+14155823494",""
"858","2318","GARCON","1101 VALENCIA ST","San Francisco","CA","94110","37.755291","-122.420898","",""
"859","2323","BLUE FRONT DELI","1430 HAIGHT ST ","San Francisco","CA","94117","37.770147","-122.446044","",""
"860","2325","THE CITRUS CLUB","1790 HAIGHT ST ","San Francisco","CA","94117","37.769428","-122.451604","+14155759656",""
"861","2326","IRMA'S PAMPANGA RESTAURANT","2901 16TH ST ","San Francisco","CA","94103","37.765123","-122.417919","+14155626688",""
"862","2331","JADE CAFE","1688 BRYANT ST ","San Francisco","CA","94103","37.765755","-122.410601","",""
